{
   "type": "FeatureCollection",
   "features": [
  {
    "type": "Feature",
    "geometry": {
       "type": "Point",
       "coordinates":  [ -71.0733,42.3339 ]
    },
    "properties": {
    "FIELD1":1336,
    "Unnamed: 0":1336,
    "open_dt":"2017/1/1 9:30",
    "year":2017,
    "neighborhood":"South End",
    "location":"771 Albany St  Roxbury  MA  02118",
    "location_street_name":"771 Albany St",
    "location_zipcode":2118,
    "month":1
    }
  },
  {
    "type": "Feature",
    "geometry": {
       "type": "Point",
       "coordinates":  [ -71.0927,42.288 ]
    },
    "properties": {
    "FIELD1":1337,
    "Unnamed: 0":1337,
    "open_dt":"2017/1/1 13:44",
    "year":2017,
    "neighborhood":"Mattapan",
    "location":"480 Harvard St  Dorchester  MA  02124",
    "location_street_name":"480 Harvard St",
    "location_zipcode":2124,
    "month":1
    }
  },
  {
    "type": "Feature",
    "geometry": {
       "type": "Point",
       "coordinates":  [ -71.131,42.3553 ]
    },
    "properties": {
    "FIELD1":1338,
    "Unnamed: 0":1338,
    "open_dt":"2017/1/2 12:26",
    "year":2017,
    "neighborhood":"Allston / Brighton",
    "location":"15A Linden St  Allston  MA  02134",
    "location_street_name":"15A Linden St",
    "location_zipcode":2134,
    "month":1
    }
  },
  {
    "type": "Feature",
    "geometry": {
       "type": "Point",
       "coordinates":  [ -71.1012,42.3122 ]
    },
    "properties": {
    "FIELD1":1339,
    "Unnamed: 0":1339,
    "open_dt":"2017/1/2 14:24",
    "year":2017,
    "neighborhood":"Jamaica Plain",
    "location":"43 Montebello Rd  Jamaica Plain  MA  02130",
    "location_street_name":"43 Montebello Rd",
    "location_zipcode":2130,
    "month":1
    }
  },
  {
    "type": "Feature",
    "geometry": {
       "type": "Point",
       "coordinates":  [ -71.0792,42.3383 ]
    },
    "properties": {
    "FIELD1":1340,
    "Unnamed: 0":1340,
    "open_dt":"2017/1/4 8:37",
    "year":2017,
    "neighborhood":"Roxbury",
    "location":"544P Massachusetts Ave  Roxbury  MA  02118",
    "location_street_name":"544P Massachusetts Ave",
    "location_zipcode":2118,
    "month":1
    }
  },
  {
    "type": "Feature",
    "geometry": {
       "type": "Point",
       "coordinates":  [ -71.0756,42.3182 ]
    },
    "properties": {
    "FIELD1":1341,
    "Unnamed: 0":1341,
    "open_dt":"2017/1/5 10:08",
    "year":2017,
    "neighborhood":"Dorchester",
    "location":"35 Brookford St  Dorchester  MA  02125",
    "location_street_name":"35 Brookford St",
    "location_zipcode":2125,
    "month":1
    }
  },
  {
    "type": "Feature",
    "geometry": {
       "type": "Point",
       "coordinates":  [ -71.0671,42.3416 ]
    },
    "properties": {
    "FIELD1":1342,
    "Unnamed: 0":1342,
    "open_dt":"2017/1/5 11:00",
    "year":2017,
    "neighborhood":"Roxbury",
    "location":"519 Harrison Ave  Roxbury  MA  02118",
    "location_street_name":"519 Harrison Ave",
    "location_zipcode":2118,
    "month":1
    }
  },
  {
    "type": "Feature",
    "geometry": {
       "type": "Point",
       "coordinates":  [ -71.0656,42.3532 ]
    },
    "properties": {
    "FIELD1":1343,
    "Unnamed: 0":1343,
    "open_dt":"2017/1/5 11:45",
    "year":2017,
    "neighborhood":"North End",
    "location":"125 Boylston St  Boston  MA  02108",
    "location_street_name":"125 Boylston St",
    "location_zipcode":2108,
    "month":1
    }
  },
  {
    "type": "Feature",
    "geometry": {
       "type": "Point",
       "coordinates":  [ -71.102,42.3212 ]
    },
    "properties": {
    "FIELD1":1344,
    "Unnamed: 0":1344,
    "open_dt":"2017/1/5 13:12",
    "year":2017,
    "neighborhood":"Jamaica Plain",
    "location":"55 Lamartine St  Jamaica Plain  MA  02130",
    "location_street_name":"55 Lamartine St",
    "location_zipcode":2130,
    "month":1
    }
  },
  {
    "type": "Feature",
    "geometry": {
       "type": "Point",
       "coordinates":  [ -71.0717,42.3258 ]
    },
    "properties": {
    "FIELD1":1345,
    "Unnamed: 0":1345,
    "open_dt":"2017/1/5 14:42",
    "year":2017,
    "neighborhood":"Roxbury",
    "location":"9 Cedric St  Roxbury  MA  02119",
    "location_street_name":"9 Cedric St",
    "location_zipcode":2119,
    "month":1
    }
  },
  {
    "type": "Feature",
    "geometry": {
       "type": "Point",
       "coordinates":  [ -71.058,42.3773 ]
    },
    "properties": {
    "FIELD1":1346,
    "Unnamed: 0":1346,
    "open_dt":"2017/1/6 8:25",
    "year":2017,
    "neighborhood":"Charlestown",
    "location":"82 Bunker Hill St  Charlestown  MA  02129",
    "location_street_name":"82 Bunker Hill St",
    "location_zipcode":2129,
    "month":1
    }
  },
  {
    "type": "Feature",
    "geometry": {
       "type": "Point",
       "coordinates":  [ -71.0742,42.336 ]
    },
    "properties": {
    "FIELD1":1347,
    "Unnamed: 0":1347,
    "open_dt":"2017/1/6 10:20",
    "year":2017,
    "neighborhood":"South End",
    "location":"39-39A Worcester Sq  Roxbury  MA  02118",
    "location_street_name":"39-39A Worcester Sq",
    "location_zipcode":2118,
    "month":1
    }
  },
  {
    "type": "Feature",
    "geometry": {
       "type": "Point",
       "coordinates":  [ -71.1152,42.3105 ]
    },
    "properties": {
    "FIELD1":1348,
    "Unnamed: 0":1348,
    "open_dt":"2017/1/7 10:06",
    "year":2017,
    "neighborhood":"Jamaica Plain",
    "location":"757 Centre St  Jamaica Plain  MA  02130",
    "location_street_name":"757 Centre St",
    "location_zipcode":2130,
    "month":1
    }
  },
  {
    "type": "Feature",
    "geometry": {
       "type": "Point",
       "coordinates":  [ -71.0587,42.3594 ]
    },
    "properties": {
    "FIELD1":1349,
    "Unnamed: 0":1349,
    "open_dt":"2017/1/11 11:18",
    "year":2017,
    "neighborhood":"South End",
    "location":"INTERSECTION of Harrison Ave & Randolph St  Roxbury  MA  ",
    "location_street_name":"INTERSECTION Harrison Ave & Randolph St",
    "location_zipcode":null,
    "month":1
    }
  },
  {
    "type": "Feature",
    "geometry": {
       "type": "Point",
       "coordinates":  [ -71.1024,42.329 ]
    },
    "properties": {
    "FIELD1":1350,
    "Unnamed: 0":1350,
    "open_dt":"2017/1/11 12:43",
    "year":2017,
    "neighborhood":"Mission Hill",
    "location":"218 Parker Hill Ave  Mission Hill  MA  02120",
    "location_street_name":"218 Parker Hill Ave",
    "location_zipcode":2120,
    "month":1
    }
  },
  {
    "type": "Feature",
    "geometry": {
       "type": "Point",
       "coordinates":  [ -71.0587,42.3594 ]
    },
    "properties": {
    "FIELD1":1351,
    "Unnamed: 0":1351,
    "open_dt":"2017/1/12 8:06",
    "year":2017,
    "neighborhood":"Roxbury",
    "location":"INTERSECTION of Ambrose St & Dearborn St  Roxbury  MA  ",
    "location_street_name":"INTERSECTION Ambrose St & Dearborn St",
    "location_zipcode":null,
    "month":1
    }
  },
  {
    "type": "Feature",
    "geometry": {
       "type": "Point",
       "coordinates":  [ -71.0831,42.3099 ]
    },
    "properties": {
    "FIELD1":1352,
    "Unnamed: 0":1352,
    "open_dt":"2017/1/12 10:27",
    "year":2017,
    "neighborhood":"Roxbury",
    "location":"647 Warren St  Dorchester  MA  02121",
    "location_street_name":"647 Warren St",
    "location_zipcode":2121,
    "month":1
    }
  },
  {
    "type": "Feature",
    "geometry": {
       "type": "Point",
       "coordinates":  [ -71.065,42.3434 ]
    },
    "properties": {
    "FIELD1":1353,
    "Unnamed: 0":1353,
    "open_dt":"2017/1/12 10:49",
    "year":2017,
    "neighborhood":"South End",
    "location":"40 Fay St  Roxbury  MA  02118",
    "location_street_name":"40 Fay St",
    "location_zipcode":2118,
    "month":1
    }
  },
  {
    "type": "Feature",
    "geometry": {
       "type": "Point",
       "coordinates":  [ -71.0779,42.3303 ]
    },
    "properties": {
    "FIELD1":1354,
    "Unnamed: 0":1354,
    "open_dt":"2017/1/12 12:02",
    "year":2017,
    "neighborhood":"Roxbury",
    "location":"906 Albany St  Roxbury  MA  02119",
    "location_street_name":"906 Albany St",
    "location_zipcode":2119,
    "month":1
    }
  },
  {
    "type": "Feature",
    "geometry": {
       "type": "Point",
       "coordinates":  [ -71.074,42.3307 ]
    },
    "properties": {
    "FIELD1":1355,
    "Unnamed: 0":1355,
    "open_dt":"2017/1/12 21:10",
    "year":2017,
    "neighborhood":"Roxbury",
    "location":"73 Reading St  Roxbury  MA  02119",
    "location_street_name":"73 Reading St",
    "location_zipcode":2119,
    "month":1
    }
  },
  {
    "type": "Feature",
    "geometry": {
       "type": "Point",
       "coordinates":  [ -71.075,42.3361 ]
    },
    "properties": {
    "FIELD1":1356,
    "Unnamed: 0":1356,
    "open_dt":"2017/1/13 7:18",
    "year":2017,
    "neighborhood":"South End",
    "location":"38 E Springfield St  Roxbury  MA  02118",
    "location_street_name":"38 E Springfield St",
    "location_zipcode":2118,
    "month":1
    }
  },
  {
    "type": "Feature",
    "geometry": {
       "type": "Point",
       "coordinates":  [ -71.0792,42.3383 ]
    },
    "properties": {
    "FIELD1":1357,
    "Unnamed: 0":1357,
    "open_dt":"2017/1/13 8:21",
    "year":2017,
    "neighborhood":"Roxbury",
    "location":"544P Massachusetts Ave  Roxbury  MA  02118",
    "location_street_name":"544P Massachusetts Ave",
    "location_zipcode":2118,
    "month":1
    }
  },
  {
    "type": "Feature",
    "geometry": {
       "type": "Point",
       "coordinates":  [ -71.0779,42.3376 ]
    },
    "properties": {
    "FIELD1":1358,
    "Unnamed: 0":1358,
    "open_dt":"2017/1/13 8:22",
    "year":2017,
    "neighborhood":"South End",
    "location":"586 Massachusetts Ave  Roxbury  MA  02118",
    "location_street_name":"586 Massachusetts Ave",
    "location_zipcode":2118,
    "month":1
    }
  },
  {
    "type": "Feature",
    "geometry": {
       "type": "Point",
       "coordinates":  [ -71.0587,42.3594 ]
    },
    "properties": {
    "FIELD1":1359,
    "Unnamed: 0":1359,
    "open_dt":"2017/1/13 9:04",
    "year":2017,
    "neighborhood":"South End",
    "location":"INTERSECTION of Chandler St & Clarendon St  Boston  MA  ",
    "location_street_name":"INTERSECTION Chandler St & Clarendon St",
    "location_zipcode":null,
    "month":1
    }
  },
  {
    "type": "Feature",
    "geometry": {
       "type": "Point",
       "coordinates":  [ -71.0587,42.3594 ]
    },
    "properties": {
    "FIELD1":1360,
    "Unnamed: 0":1360,
    "open_dt":"2017/1/13 9:24",
    "year":2017,
    "neighborhood":"South End",
    "location":"INTERSECTION of Chandler St & Clarendon St  Boston  MA  ",
    "location_street_name":"INTERSECTION Chandler St & Clarendon St",
    "location_zipcode":null,
    "month":1
    }
  },
  {
    "type": "Feature",
    "geometry": {
       "type": "Point",
       "coordinates":  [ -71.0669,42.3435 ]
    },
    "properties": {
    "FIELD1":1361,
    "Unnamed: 0":1361,
    "open_dt":"2017/1/15 8:30",
    "year":2017,
    "neighborhood":"Roxbury",
    "location":"230 Shawmut Ave  Roxbury  MA  02118",
    "location_street_name":"230 Shawmut Ave",
    "location_zipcode":2118,
    "month":1
    }
  },
  {
    "type": "Feature",
    "geometry": {
       "type": "Point",
       "coordinates":  [ -71.1339,42.2769 ]
    },
    "properties": {
    "FIELD1":1362,
    "Unnamed: 0":1362,
    "open_dt":"2017/1/15 10:26",
    "year":2017,
    "neighborhood":"Roslindale",
    "location":"124 Glendower Rd  Roslindale  MA  02131",
    "location_street_name":"124 Glendower Rd",
    "location_zipcode":2131,
    "month":1
    }
  },
  {
    "type": "Feature",
    "geometry": {
       "type": "Point",
       "coordinates":  [ -71.1596,42.26 ]
    },
    "properties": {
    "FIELD1":1363,
    "Unnamed: 0":1363,
    "open_dt":"2017/1/16 15:10",
    "year":2017,
    "neighborhood":"West Roxbury",
    "location":"5275 Washington St  West Roxbury  MA  02132",
    "location_street_name":"5275 Washington St",
    "location_zipcode":2132,
    "month":1
    }
  },
  {
    "type": "Feature",
    "geometry": {
       "type": "Point",
       "coordinates":  [ -71.0587,42.3594 ]
    },
    "properties": {
    "FIELD1":1364,
    "Unnamed: 0":1364,
    "open_dt":"2017/1/16 18:11",
    "year":2017,
    "neighborhood":"South Boston",
    "location":"INTERSECTION of Atkinson St & Southampton St  Roxbury  MA  ",
    "location_street_name":"INTERSECTION Atkinson St & Southampton St",
    "location_zipcode":null,
    "month":1
    }
  },
  {
    "type": "Feature",
    "geometry": {
       "type": "Point",
       "coordinates":  [ -71.0695,42.3317 ]
    },
    "properties": {
    "FIELD1":1365,
    "Unnamed: 0":1365,
    "open_dt":"2017/1/16 18:17",
    "year":2017,
    "neighborhood":"Roxbury",
    "location":"115 Southampton St  Roxbury  MA  02118",
    "location_street_name":"115 Southampton St",
    "location_zipcode":2118,
    "month":1
    }
  },
  {
    "type": "Feature",
    "geometry": {
       "type": "Point",
       "coordinates":  [ -71.0741,42.3257 ]
    },
    "properties": {
    "FIELD1":1366,
    "Unnamed: 0":1366,
    "open_dt":"2017/1/16 19:27",
    "year":2017,
    "neighborhood":"Roxbury",
    "location":"28 Dunmore St  Roxbury  MA  02119",
    "location_street_name":"28 Dunmore St",
    "location_zipcode":2119,
    "month":1
    }
  },
  {
    "type": "Feature",
    "geometry": {
       "type": "Point",
       "coordinates":  [ -71.0655,42.3265 ]
    },
    "properties": {
    "FIELD1":1367,
    "Unnamed: 0":1367,
    "open_dt":"2017/1/17 8:19",
    "year":2017,
    "neighborhood":"Dorchester",
    "location":"1100 Massachusetts Ave  Dorchester  MA  02125",
    "location_street_name":"1100 Massachusetts Ave",
    "location_zipcode":2125,
    "month":1
    }
  },
  {
    "type": "Feature",
    "geometry": {
       "type": "Point",
       "coordinates":  [ -71.0713,42.3261 ]
    },
    "properties": {
    "FIELD1":1368,
    "Unnamed: 0":1368,
    "open_dt":"2017/1/17 14:25",
    "year":2017,
    "neighborhood":"Roxbury",
    "location":"150 Norfolk Ave  Roxbury  MA  02119",
    "location_street_name":"150 Norfolk Ave",
    "location_zipcode":2119,
    "month":1
    }
  },
  {
    "type": "Feature",
    "geometry": {
       "type": "Point",
       "coordinates":  [ -71.0756,42.3351 ]
    },
    "properties": {
    "FIELD1":1369,
    "Unnamed: 0":1369,
    "open_dt":"2017/1/17 14:31",
    "year":2017,
    "neighborhood":"Roxbury",
    "location":"699 Massachusetts Ave  Roxbury  MA  02118",
    "location_street_name":"699 Massachusetts Ave",
    "location_zipcode":2118,
    "month":1
    }
  },
  {
    "type": "Feature",
    "geometry": {
       "type": "Point",
       "coordinates":  [ -71.0709,42.333 ]
    },
    "properties": {
    "FIELD1":1370,
    "Unnamed: 0":1370,
    "open_dt":"2017/1/18 7:58",
    "year":2017,
    "neighborhood":"South Boston",
    "location":"19 Bradston St  Roxbury  MA  02118",
    "location_street_name":"19 Bradston St",
    "location_zipcode":2118,
    "month":1
    }
  },
  {
    "type": "Feature",
    "geometry": {
       "type": "Point",
       "coordinates":  [ -71.098,42.3291 ]
    },
    "properties": {
    "FIELD1":1371,
    "Unnamed: 0":1371,
    "open_dt":"2017/1/18 8:13",
    "year":2017,
    "neighborhood":"Mission Hill",
    "location":"87 Terrace St  Mission Hill  MA  02120",
    "location_street_name":"87 Terrace St",
    "location_zipcode":2120,
    "month":1
    }
  },
  {
    "type": "Feature",
    "geometry": {
       "type": "Point",
       "coordinates":  [ -71.0587,42.3594 ]
    },
    "properties": {
    "FIELD1":1372,
    "Unnamed: 0":1372,
    "open_dt":"2017/1/18 12:38",
    "year":2017,
    "neighborhood":"South End",
    "location":"INTERSECTION of Public Alley No. 716 & Harrison Ave  Roxbury  MA",
    "location_street_name":"INTERSECTION Public Alley No. 716 & Harrison Ave",
    "location_zipcode":null,
    "month":1
    }
  },
  {
    "type": "Feature",
    "geometry": {
       "type": "Point",
       "coordinates":  [ -71.0587,42.3594 ]
    },
    "properties": {
    "FIELD1":1373,
    "Unnamed: 0":1373,
    "open_dt":"2017/1/19 8:35",
    "year":2017,
    "neighborhood":"South End",
    "location":"INTERSECTION of Public Alley No. 716 & Harrison Ave  Roxbury  MA",
    "location_street_name":"INTERSECTION Public Alley No. 716 & Harrison Ave",
    "location_zipcode":null,
    "month":1
    }
  },
  {
    "type": "Feature",
    "geometry": {
       "type": "Point",
       "coordinates":  [ -71.0814,42.3394 ]
    },
    "properties": {
    "FIELD1":1374,
    "Unnamed: 0":1374,
    "open_dt":"2017/1/19 10:07",
    "year":2017,
    "neighborhood":"Roxbury",
    "location":"255-257 Northampton St  Roxbury  MA  02118",
    "location_street_name":"255-257 Northampton St",
    "location_zipcode":2118,
    "month":1
    }
  },
  {
    "type": "Feature",
    "geometry": {
       "type": "Point",
       "coordinates":  [ -71.0743,42.3276 ]
    },
    "properties": {
    "FIELD1":1375,
    "Unnamed: 0":1375,
    "open_dt":"2017/1/19 11:30",
    "year":2017,
    "neighborhood":"Roxbury",
    "location":"21 Howard St  Roxbury  MA  02119",
    "location_street_name":"21 Howard St",
    "location_zipcode":2119,
    "month":1
    }
  },
  {
    "type": "Feature",
    "geometry": {
       "type": "Point",
       "coordinates":  [ -71.1134,42.302 ]
    },
    "properties": {
    "FIELD1":1376,
    "Unnamed: 0":1376,
    "open_dt":"2017/1/19 13:29",
    "year":2017,
    "neighborhood":"Jamaica Plain",
    "location":"402 Arborway   Jamaica Plain  MA  02130",
    "location_street_name":"402 Arborway",
    "location_zipcode":2130,
    "month":1
    }
  },
  {
    "type": "Feature",
    "geometry": {
       "type": "Point",
       "coordinates":  [ -71.0704,42.3315 ]
    },
    "properties": {
    "FIELD1":1377,
    "Unnamed: 0":1377,
    "open_dt":"2017/1/19 15:00",
    "year":2017,
    "neighborhood":"South Boston",
    "location":"870 Massachusetts Ave  Roxbury  MA  02118",
    "location_street_name":"870 Massachusetts Ave",
    "location_zipcode":2118,
    "month":1
    }
  },
  {
    "type": "Feature",
    "geometry": {
       "type": "Point",
       "coordinates":  [ -71.0741,42.3347 ]
    },
    "properties": {
    "FIELD1":1378,
    "Unnamed: 0":1378,
    "open_dt":"2017/1/19 16:04",
    "year":2017,
    "neighborhood":"South End",
    "location":"850 Harrison Ave  Roxbury  MA  02118",
    "location_street_name":"850 Harrison Ave",
    "location_zipcode":2118,
    "month":1
    }
  },
  {
    "type": "Feature",
    "geometry": {
       "type": "Point",
       "coordinates":  [ -71.0618,42.3212 ]
    },
    "properties": {
    "FIELD1":1379,
    "Unnamed: 0":1379,
    "open_dt":"2017/1/19 20:19",
    "year":2017,
    "neighborhood":"Dorchester",
    "location":"1280 Massachusetts Ave  Dorchester  MA  02125",
    "location_street_name":"1280 Massachusetts Ave",
    "location_zipcode":2125,
    "month":1
    }
  },
  {
    "type": "Feature",
    "geometry": {
       "type": "Point",
       "coordinates":  [ -71.0587,42.2891 ]
    },
    "properties": {
    "FIELD1":1380,
    "Unnamed: 0":1380,
    "open_dt":"2017/1/20 7:50",
    "year":2017,
    "neighborhood":"Dorchester",
    "location":"90 Florida St  Dorchester  MA  02124",
    "location_street_name":"90 Florida St",
    "location_zipcode":2124,
    "month":1
    }
  },
  {
    "type": "Feature",
    "geometry": {
       "type": "Point",
       "coordinates":  [ -71.0745,42.3362 ]
    },
    "properties": {
    "FIELD1":1381,
    "Unnamed: 0":1381,
    "open_dt":"2017/1/20 8:04",
    "year":2017,
    "neighborhood":"South End",
    "location":"31 Worcester Sq  Roxbury  MA  02118",
    "location_street_name":"31 Worcester Sq",
    "location_zipcode":2118,
    "month":1
    }
  },
  {
    "type": "Feature",
    "geometry": {
       "type": "Point",
       "coordinates":  [ -71.075,42.3352 ]
    },
    "properties": {
    "FIELD1":1382,
    "Unnamed: 0":1382,
    "open_dt":"2017/1/20 8:10",
    "year":2017,
    "neighborhood":"South End",
    "location":"702 Massachusetts Ave  Roxbury  MA  02118",
    "location_street_name":"702 Massachusetts Ave",
    "location_zipcode":2118,
    "month":1
    }
  },
  {
    "type": "Feature",
    "geometry": {
       "type": "Point",
       "coordinates":  [ -71.069,42.3261 ]
    },
    "properties": {
    "FIELD1":1383,
    "Unnamed: 0":1383,
    "open_dt":"2017/1/20 12:36",
    "year":2017,
    "neighborhood":"Roxbury",
    "location":"160 Norfolk Ave  Roxbury  MA  02119",
    "location_street_name":"160 Norfolk Ave",
    "location_zipcode":2119,
    "month":1
    }
  },
  {
    "type": "Feature",
    "geometry": {
       "type": "Point",
       "coordinates":  [ -71.0355,42.3334 ]
    },
    "properties": {
    "FIELD1":1384,
    "Unnamed: 0":1384,
    "open_dt":"2017/1/21 9:05",
    "year":2017,
    "neighborhood":"South Boston",
    "location":"123 L St  South Boston  MA  02127",
    "location_street_name":"123 L St",
    "location_zipcode":2127,
    "month":1
    }
  },
  {
    "type": "Feature",
    "geometry": {
       "type": "Point",
       "coordinates":  [ -71.0725,42.347 ]
    },
    "properties": {
    "FIELD1":1385,
    "Unnamed: 0":1385,
    "open_dt":"2017/1/21 9:19",
    "year":2017,
    "neighborhood":"South End",
    "location":"4 Cazenove St  Boston  MA  02116",
    "location_street_name":"4 Cazenove St",
    "location_zipcode":2116,
    "month":1
    }
  },
  {
    "type": "Feature",
    "geometry": {
       "type": "Point",
       "coordinates":  [ -71.0587,42.3594 ]
    },
    "properties": {
    "FIELD1":1386,
    "Unnamed: 0":1386,
    "open_dt":"2017/1/21 12:29",
    "year":2017,
    "neighborhood":"South End",
    "location":"INTERSECTION of Public Alley No. 716 & Harrison Ave  Roxbury  MA",
    "location_street_name":"INTERSECTION Public Alley No. 716 & Harrison Ave",
    "location_zipcode":null,
    "month":1
    }
  },
  {
    "type": "Feature",
    "geometry": {
       "type": "Point",
       "coordinates":  [ -71.0867,42.3514 ]
    },
    "properties": {
    "FIELD1":1387,
    "Unnamed: 0":1387,
    "open_dt":"2017/1/21 13:04",
    "year":2017,
    "neighborhood":"Back Bay",
    "location":"431 Beacon St  Boston  MA  02115",
    "location_street_name":"431 Beacon St",
    "location_zipcode":2115,
    "month":1
    }
  },
  {
    "type": "Feature",
    "geometry": {
       "type": "Point",
       "coordinates":  [ -71.0749,42.3372 ]
    },
    "properties": {
    "FIELD1":1388,
    "Unnamed: 0":1388,
    "open_dt":"2017/1/22 11:45",
    "year":2017,
    "neighborhood":"South End",
    "location":"2 Worcester Sq  Roxbury  MA  02118",
    "location_street_name":"2 Worcester Sq",
    "location_zipcode":2118,
    "month":1
    }
  },
  {
    "type": "Feature",
    "geometry": {
       "type": "Point",
       "coordinates":  [ -71.0747,42.3359 ]
    },
    "properties": {
    "FIELD1":1389,
    "Unnamed: 0":1389,
    "open_dt":"2017/1/22 12:49",
    "year":2017,
    "neighborhood":"South End",
    "location":"50 E Springfield St  Roxbury  MA  02118",
    "location_street_name":"50 E Springfield St",
    "location_zipcode":2118,
    "month":1
    }
  },
  {
    "type": "Feature",
    "geometry": {
       "type": "Point",
       "coordinates":  [ -71.072,42.3384 ]
    },
    "properties": {
    "FIELD1":1390,
    "Unnamed: 0":1390,
    "open_dt":"2017/1/22 14:28",
    "year":2017,
    "neighborhood":"Roxbury",
    "location":"10 Saint George St  Roxbury  MA  02118",
    "location_street_name":"10 Saint George St",
    "location_zipcode":2118,
    "month":1
    }
  },
  {
    "type": "Feature",
    "geometry": {
       "type": "Point",
       "coordinates":  [ -71.0587,42.3594 ]
    },
    "properties": {
    "FIELD1":1391,
    "Unnamed: 0":1391,
    "open_dt":"2017/1/22 17:28",
    "year":2017,
    "neighborhood":"Roxbury",
    "location":"INTERSECTION of Melnea Cass Blvd & Hampden St  Roxbury  MA  ",
    "location_street_name":"INTERSECTION Melnea Cass Blvd & Hampden St",
    "location_zipcode":null,
    "month":1
    }
  },
  {
    "type": "Feature",
    "geometry": {
       "type": "Point",
       "coordinates":  [ -71.0686,42.34 ]
    },
    "properties": {
    "FIELD1":1392,
    "Unnamed: 0":1392,
    "open_dt":"2017/1/23 7:43",
    "year":2017,
    "neighborhood":"Roxbury",
    "location":"618 Harrison Ave  Roxbury  MA  02118",
    "location_street_name":"618 Harrison Ave",
    "location_zipcode":2118,
    "month":1
    }
  },
  {
    "type": "Feature",
    "geometry": {
       "type": "Point",
       "coordinates":  [ -71.0672,42.2744 ]
    },
    "properties": {
    "FIELD1":1393,
    "Unnamed: 0":1393,
    "open_dt":"2017/1/23 8:01",
    "year":2017,
    "neighborhood":"Dorchester",
    "location":"2222 Dorchester Ave  Dorchester  MA  02124",
    "location_street_name":"2222 Dorchester Ave",
    "location_zipcode":2124,
    "month":1
    }
  },
  {
    "type": "Feature",
    "geometry": {
       "type": "Point",
       "coordinates":  [ -71.0587,42.3594 ]
    },
    "properties": {
    "FIELD1":1394,
    "Unnamed: 0":1394,
    "open_dt":"2017/1/23 8:05",
    "year":2017,
    "neighborhood":"Roxbury",
    "location":"INTERSECTION of Eustis St & Harrison Ave  Roxbury  MA  ",
    "location_street_name":"INTERSECTION Eustis St & Harrison Ave",
    "location_zipcode":null,
    "month":1
    }
  },
  {
    "type": "Feature",
    "geometry": {
       "type": "Point",
       "coordinates":  [ -71.0587,42.3594 ]
    },
    "properties": {
    "FIELD1":1395,
    "Unnamed: 0":1395,
    "open_dt":"2017/1/23 8:08",
    "year":2017,
    "neighborhood":"Roxbury",
    "location":"INTERSECTION of Ambrose St & Dearborn St  Roxbury  MA  ",
    "location_street_name":"INTERSECTION Ambrose St & Dearborn St",
    "location_zipcode":null,
    "month":1
    }
  },
  {
    "type": "Feature",
    "geometry": {
       "type": "Point",
       "coordinates":  [ -71.0672,42.3278 ]
    },
    "properties": {
    "FIELD1":1396,
    "Unnamed: 0":1396,
    "open_dt":"2017/1/23 8:15",
    "year":2017,
    "neighborhood":"South Boston",
    "location":"1010 Massachusetts Ave  Roxbury  MA  02118",
    "location_street_name":"1010 Massachusetts Ave",
    "location_zipcode":2118,
    "month":1
    }
  },
  {
    "type": "Feature",
    "geometry": {
       "type": "Point",
       "coordinates":  [ -71.0809,42.3312 ]
    },
    "properties": {
    "FIELD1":1397,
    "Unnamed: 0":1397,
    "open_dt":"2017/1/23 11:42",
    "year":2017,
    "neighborhood":"Roxbury",
    "location":"30 Eustis St  Roxbury  MA  02119",
    "location_street_name":"30 Eustis St",
    "location_zipcode":2119,
    "month":1
    }
  },
  {
    "type": "Feature",
    "geometry": {
       "type": "Point",
       "coordinates":  [ -71.0928,42.3463 ]
    },
    "properties": {
    "FIELD1":1398,
    "Unnamed: 0":1398,
    "open_dt":"2017/1/23 12:34",
    "year":2017,
    "neighborhood":"North End",
    "location":"20 Park Dr  Boston  MA  02215",
    "location_street_name":"20 Park Dr",
    "location_zipcode":2215,
    "month":1
    }
  },
  {
    "type": "Feature",
    "geometry": {
       "type": "Point",
       "coordinates":  [ -71.0666,42.3415 ]
    },
    "properties": {
    "FIELD1":1399,
    "Unnamed: 0":1399,
    "open_dt":"2017/1/24 6:21",
    "year":2017,
    "neighborhood":"Roxbury",
    "location":"536-550 Harrison Ave  Roxbury  MA  02118",
    "location_street_name":"536-550 Harrison Ave",
    "location_zipcode":2118,
    "month":1
    }
  },
  {
    "type": "Feature",
    "geometry": {
       "type": "Point",
       "coordinates":  [ -71.0509,42.2973 ]
    },
    "properties": {
    "FIELD1":1400,
    "Unnamed: 0":1400,
    "open_dt":"2017/1/24 10:28",
    "year":2017,
    "neighborhood":"Dorchester",
    "location":"105 Victory Rd  Dorchester  MA  02122",
    "location_street_name":"105 Victory Rd",
    "location_zipcode":2122,
    "month":1
    }
  },
  {
    "type": "Feature",
    "geometry": {
       "type": "Point",
       "coordinates":  [ -71.072,42.3384 ]
    },
    "properties": {
    "FIELD1":1401,
    "Unnamed: 0":1401,
    "open_dt":"2017/1/24 15:50",
    "year":2017,
    "neighborhood":"Roxbury",
    "location":"10 Saint George St  Roxbury  MA  02118",
    "location_street_name":"10 Saint George St",
    "location_zipcode":2118,
    "month":1
    }
  },
  {
    "type": "Feature",
    "geometry": {
       "type": "Point",
       "coordinates":  [ -71.0373,42.375 ]
    },
    "properties": {
    "FIELD1":1402,
    "Unnamed: 0":1402,
    "open_dt":"2017/1/25 8:19",
    "year":2017,
    "neighborhood":"East Boston",
    "location":"182 London St  East Boston  MA  02128",
    "location_street_name":"182 London St",
    "location_zipcode":2128,
    "month":1
    }
  },
  {
    "type": "Feature",
    "geometry": {
       "type": "Point",
       "coordinates":  [ -71.0989,42.3154 ]
    },
    "properties": {
    "FIELD1":1403,
    "Unnamed: 0":1403,
    "open_dt":"2017/1/25 13:08",
    "year":2017,
    "neighborhood":"Jamaica Plain",
    "location":"3091 Washington St  Roxbury  MA  02119",
    "location_street_name":"3091 Washington St",
    "location_zipcode":2119,
    "month":1
    }
  },
  {
    "type": "Feature",
    "geometry": {
       "type": "Point",
       "coordinates":  [ -71.066,42.3425 ]
    },
    "properties": {
    "FIELD1":1404,
    "Unnamed: 0":1404,
    "open_dt":"2017/1/25 15:21",
    "year":2017,
    "neighborhood":"South End",
    "location":"443 Harrison Ave  Roxbury  MA  02118",
    "location_street_name":"443 Harrison Ave",
    "location_zipcode":2118,
    "month":1
    }
  },
  {
    "type": "Feature",
    "geometry": {
       "type": "Point",
       "coordinates":  [ -71.1128,42.3005 ]
    },
    "properties": {
    "FIELD1":1405,
    "Unnamed: 0":1405,
    "open_dt":"2017/1/25 15:25",
    "year":2017,
    "neighborhood":"Jamaica Plain",
    "location":"3700 Washington St  Jamaica Plain  MA  02130",
    "location_street_name":"3700 Washington St",
    "location_zipcode":2130,
    "month":1
    }
  },
  {
    "type": "Feature",
    "geometry": {
       "type": "Point",
       "coordinates":  [ -71.0765,42.3288 ]
    },
    "properties": {
    "FIELD1":1406,
    "Unnamed: 0":1406,
    "open_dt":"2017/1/25 16:25",
    "year":2017,
    "neighborhood":"Roxbury",
    "location":"27 Adams St  Roxbury  MA  02119",
    "location_street_name":"27 Adams St",
    "location_zipcode":2119,
    "month":1
    }
  },
  {
    "type": "Feature",
    "geometry": {
       "type": "Point",
       "coordinates":  [ -71.1128,42.3005 ]
    },
    "properties": {
    "FIELD1":1407,
    "Unnamed: 0":1407,
    "open_dt":"2017/1/25 22:02",
    "year":2017,
    "neighborhood":"Jamaica Plain",
    "location":"3700 Washington St  Jamaica Plain  MA  02130",
    "location_street_name":"3700 Washington St",
    "location_zipcode":2130,
    "month":1
    }
  },
  {
    "type": "Feature",
    "geometry": {
       "type": "Point",
       "coordinates":  [ -71.0539,42.3272 ]
    },
    "properties": {
    "FIELD1":1408,
    "Unnamed: 0":1408,
    "open_dt":"2017/1/26 9:39",
    "year":2017,
    "neighborhood":"South Boston",
    "location":"24 General Lawrence J Logan Way  South Boston  MA  02127",
    "location_street_name":"24 General Lawrence J Logan Way",
    "location_zipcode":2127,
    "month":1
    }
  },
  {
    "type": "Feature",
    "geometry": {
       "type": "Point",
       "coordinates":  [ -71.0587,42.3594 ]
    },
    "properties": {
    "FIELD1":1409,
    "Unnamed: 0":1409,
    "open_dt":"2017/1/26 14:49",
    "year":2017,
    "neighborhood":"Back Bay",
    "location":"INTERSECTION of Massachusetts Ave & Huntington Ave  Boston  MA  ",
    "location_street_name":"INTERSECTION Massachusetts Ave & Huntington Ave",
    "location_zipcode":null,
    "month":1
    }
  },
  {
    "type": "Feature",
    "geometry": {
       "type": "Point",
       "coordinates":  [ -71.0545,42.3306 ]
    },
    "properties": {
    "FIELD1":1410,
    "Unnamed: 0":1410,
    "open_dt":"2017/1/26 14:50",
    "year":2017,
    "neighborhood":"South Boston",
    "location":"344 Dorchester St  South Boston  MA  02127",
    "location_street_name":"344 Dorchester St",
    "location_zipcode":2127,
    "month":1
    }
  },
  {
    "type": "Feature",
    "geometry": {
       "type": "Point",
       "coordinates":  [ -71.0587,42.3594 ]
    },
    "properties": {
    "FIELD1":1411,
    "Unnamed: 0":1411,
    "open_dt":"2017/1/27 0:31",
    "year":2017,
    "neighborhood":"South Boston",
    "location":"INTERSECTION of Southampton St & Frontage Rd  South Boston  MA  ",
    "location_street_name":"INTERSECTION Southampton St & Frontage Rd",
    "location_zipcode":null,
    "month":1
    }
  },
  {
    "type": "Feature",
    "geometry": {
       "type": "Point",
       "coordinates":  [ -71.072,42.3384 ]
    },
    "properties": {
    "FIELD1":1412,
    "Unnamed: 0":1412,
    "open_dt":"2017/1/27 7:28",
    "year":2017,
    "neighborhood":"Roxbury",
    "location":"10 Saint George St  Roxbury  MA  02118",
    "location_street_name":"10 Saint George St",
    "location_zipcode":2118,
    "month":1
    }
  },
  {
    "type": "Feature",
    "geometry": {
       "type": "Point",
       "coordinates":  [ -71.0666,42.3826 ]
    },
    "properties": {
    "FIELD1":1413,
    "Unnamed: 0":1413,
    "open_dt":"2017/1/27 8:26",
    "year":2017,
    "neighborhood":"Charlestown",
    "location":"428 Medford St  Charlestown  MA  02129",
    "location_street_name":"428 Medford St",
    "location_zipcode":2129,
    "month":1
    }
  },
  {
    "type": "Feature",
    "geometry": {
       "type": "Point",
       "coordinates":  [ -71.0587,42.3594 ]
    },
    "properties": {
    "FIELD1":1414,
    "Unnamed: 0":1414,
    "open_dt":"2017/1/27 8:31",
    "year":2017,
    "neighborhood":"South Boston",
    "location":"INTERSECTION of Summer St & Dorchester Ave  Boston  MA  ",
    "location_street_name":"INTERSECTION Summer St & Dorchester Ave",
    "location_zipcode":null,
    "month":1
    }
  },
  {
    "type": "Feature",
    "geometry": {
       "type": "Point",
       "coordinates":  [ -71.0743,42.3358 ]
    },
    "properties": {
    "FIELD1":1415,
    "Unnamed: 0":1415,
    "open_dt":"2017/1/27 12:45",
    "year":2017,
    "neighborhood":"South End",
    "location":"811 Harrison Ave  Roxbury  MA  02118",
    "location_street_name":"811 Harrison Ave",
    "location_zipcode":2118,
    "month":1
    }
  },
  {
    "type": "Feature",
    "geometry": {
       "type": "Point",
       "coordinates":  [ -71.0587,42.3594 ]
    },
    "properties": {
    "FIELD1":1416,
    "Unnamed: 0":1416,
    "open_dt":"2017/1/28 10:10",
    "year":2017,
    "neighborhood":"South End",
    "location":"INTERSECTION of Massachusetts Ave & Harrison Ave  Roxbury  MA  ",
    "location_street_name":"INTERSECTION Massachusetts Ave & Harrison Ave",
    "location_zipcode":null,
    "month":1
    }
  },
  {
    "type": "Feature",
    "geometry": {
       "type": "Point",
       "coordinates":  [ -71.066,42.3425 ]
    },
    "properties": {
    "FIELD1":1417,
    "Unnamed: 0":1417,
    "open_dt":"2017/1/28 12:44",
    "year":2017,
    "neighborhood":"South End",
    "location":"443 Harrison Ave  Roxbury  MA  02118",
    "location_street_name":"443 Harrison Ave",
    "location_zipcode":2118,
    "month":1
    }
  },
  {
    "type": "Feature",
    "geometry": {
       "type": "Point",
       "coordinates":  [ -71.0753,42.3373 ]
    },
    "properties": {
    "FIELD1":1418,
    "Unnamed: 0":1418,
    "open_dt":"2017/1/28 12:51",
    "year":2017,
    "neighborhood":"South End",
    "location":"2 A-20 Worcester Sq  Roxbury  MA  02118",
    "location_street_name":"2 A-20 Worcester Sq",
    "location_zipcode":2118,
    "month":1
    }
  },
  {
    "type": "Feature",
    "geometry": {
       "type": "Point",
       "coordinates":  [ -71.0791,42.3374 ]
    },
    "properties": {
    "FIELD1":1419,
    "Unnamed: 0":1419,
    "open_dt":"2017/1/29 13:01",
    "year":2017,
    "neighborhood":"Roxbury",
    "location":"179 Northampton St  Roxbury  MA  02118",
    "location_street_name":"179 Northampton St",
    "location_zipcode":2118,
    "month":1
    }
  },
  {
    "type": "Feature",
    "geometry": {
       "type": "Point",
       "coordinates":  [ -71.0752,42.3354 ]
    },
    "properties": {
    "FIELD1":1420,
    "Unnamed: 0":1420,
    "open_dt":"2017/1/29 13:14",
    "year":2017,
    "neighborhood":"South End",
    "location":"694 Massachusetts Ave  Roxbury  MA  02118",
    "location_street_name":"694 Massachusetts Ave",
    "location_zipcode":2118,
    "month":1
    }
  },
  {
    "type": "Feature",
    "geometry": {
       "type": "Point",
       "coordinates":  [ -71.0746,42.3426 ]
    },
    "properties": {
    "FIELD1":1421,
    "Unnamed: 0":1421,
    "open_dt":"2017/1/30 7:29",
    "year":2017,
    "neighborhood":"Roxbury",
    "location":"627-627A Tremont St  Roxbury  MA  02118",
    "location_street_name":"627-627A Tremont St",
    "location_zipcode":2118,
    "month":1
    }
  },
  {
    "type": "Feature",
    "geometry": {
       "type": "Point",
       "coordinates":  [ -71.0668,42.3428 ]
    },
    "properties": {
    "FIELD1":1422,
    "Unnamed: 0":1422,
    "open_dt":"2017/1/30 7:30",
    "year":2017,
    "neighborhood":"South End",
    "location":"1226 Washington St  Roxbury  MA  02118",
    "location_street_name":"1226 Washington St",
    "location_zipcode":2118,
    "month":1
    }
  },
  {
    "type": "Feature",
    "geometry": {
       "type": "Point",
       "coordinates":  [ -71.1043,42.3174 ]
    },
    "properties": {
    "FIELD1":1423,
    "Unnamed: 0":1423,
    "open_dt":"2017/1/30 10:50",
    "year":2017,
    "neighborhood":"Jamaica Plain",
    "location":"96-104 Boylston St  Jamaica Plain  MA  02130",
    "location_street_name":"96-104 Boylston St",
    "location_zipcode":2130,
    "month":1
    }
  },
  {
    "type": "Feature",
    "geometry": {
       "type": "Point",
       "coordinates":  [ -71.0752,42.2919 ]
    },
    "properties": {
    "FIELD1":1424,
    "Unnamed: 0":1424,
    "open_dt":"2017/1/30 11:24",
    "year":2017,
    "neighborhood":"Dorchester",
    "location":"152 Spencer St  Dorchester  MA  02124",
    "location_street_name":"152 Spencer St",
    "location_zipcode":2124,
    "month":1
    }
  },
  {
    "type": "Feature",
    "geometry": {
       "type": "Point",
       "coordinates":  [ -71.0745,42.3339 ]
    },
    "properties": {
    "FIELD1":1425,
    "Unnamed: 0":1425,
    "open_dt":"2017/1/31 8:29",
    "year":2017,
    "neighborhood":"Roxbury",
    "location":"727 Massachusetts Ave  Roxbury  MA  02118",
    "location_street_name":"727 Massachusetts Ave",
    "location_zipcode":2118,
    "month":1
    }
  },
  {
    "type": "Feature",
    "geometry": {
       "type": "Point",
       "coordinates":  [ -71.092,42.3328 ]
    },
    "properties": {
    "FIELD1":1426,
    "Unnamed: 0":1426,
    "open_dt":"2017/1/31 8:34",
    "year":2017,
    "neighborhood":"Roxbury",
    "location":"1290 Tremont St  Mission Hill  MA  02120",
    "location_street_name":"1290 Tremont St",
    "location_zipcode":2120,
    "month":1
    }
  },
  {
    "type": "Feature",
    "geometry": {
       "type": "Point",
       "coordinates":  [ -71.0259,42.3374 ]
    },
    "properties": {
    "FIELD1":1427,
    "Unnamed: 0":1427,
    "open_dt":"2017/1/31 11:28",
    "year":2017,
    "neighborhood":"South Boston",
    "location":"933 E Second St  South Boston  MA  02127",
    "location_street_name":"933 E Second St",
    "location_zipcode":2127,
    "month":1
    }
  },
  {
    "type": "Feature",
    "geometry": {
       "type": "Point",
       "coordinates":  [ -71.1128,42.3005 ]
    },
    "properties": {
    "FIELD1":1428,
    "Unnamed: 0":1428,
    "open_dt":"2017/1/31 11:50",
    "year":2017,
    "neighborhood":"Jamaica Plain",
    "location":"3700 Washington St  Jamaica Plain  MA  02130",
    "location_street_name":"3700 Washington St",
    "location_zipcode":2130,
    "month":1
    }
  },
  {
    "type": "Feature",
    "geometry": {
       "type": "Point",
       "coordinates":  [ -71.0655,42.3265 ]
    },
    "properties": {
    "FIELD1":1429,
    "Unnamed: 0":1429,
    "open_dt":"2017/1/31 13:13",
    "year":2017,
    "neighborhood":"Dorchester",
    "location":"1100 Massachusetts Ave  Dorchester  MA  02125",
    "location_street_name":"1100 Massachusetts Ave",
    "location_zipcode":2125,
    "month":1
    }
  },
  {
    "type": "Feature",
    "geometry": {
       "type": "Point",
       "coordinates":  [ -71.0259,42.3374 ]
    },
    "properties": {
    "FIELD1":1430,
    "Unnamed: 0":1430,
    "open_dt":"2017/1/31 14:14",
    "year":2017,
    "neighborhood":"South Boston",
    "location":"933 E Second St  South Boston  MA  02127",
    "location_street_name":"933 E Second St",
    "location_zipcode":2127,
    "month":1
    }
  },
  {
    "type": "Feature",
    "geometry": {
       "type": "Point",
       "coordinates":  [ -71.0858,42.3107 ]
    },
    "properties": {
    "FIELD1":1431,
    "Unnamed: 0":1431,
    "open_dt":"2017/2/1 8:18",
    "year":2017,
    "neighborhood":"Dorchester",
    "location":"91 Georgia St  Dorchester  MA  02121",
    "location_street_name":"91 Georgia St",
    "location_zipcode":2121,
    "month":2
    }
  },
  {
    "type": "Feature",
    "geometry": {
       "type": "Point",
       "coordinates":  [ -71.0846,42.3308 ]
    },
    "properties": {
    "FIELD1":1432,
    "Unnamed: 0":1432,
    "open_dt":"2017/2/1 11:08",
    "year":2017,
    "neighborhood":"Roxbury",
    "location":"23 Vernon St  Roxbury  MA  02119",
    "location_street_name":"23 Vernon St",
    "location_zipcode":2119,
    "month":2
    }
  },
  {
    "type": "Feature",
    "geometry": {
       "type": "Point",
       "coordinates":  [ -71.0587,42.3594 ]
    },
    "properties": {
    "FIELD1":1433,
    "Unnamed: 0":1433,
    "open_dt":"2017/2/1 20:38",
    "year":2017,
    "neighborhood":"South Boston",
    "location":"INTERSECTION of M St & E Seventh St  South Boston  MA  ",
    "location_street_name":"INTERSECTION M St & E Seventh St",
    "location_zipcode":null,
    "month":2
    }
  },
  {
    "type": "Feature",
    "geometry": {
       "type": "Point",
       "coordinates":  [ -71.0756,42.3361 ]
    },
    "properties": {
    "FIELD1":1434,
    "Unnamed: 0":1434,
    "open_dt":"2017/2/1 20:52",
    "year":2017,
    "neighborhood":"South End",
    "location":"29 E Springfield St  Roxbury  MA  02118",
    "location_street_name":"29 E Springfield St",
    "location_zipcode":2118,
    "month":2
    }
  },
  {
    "type": "Feature",
    "geometry": {
       "type": "Point",
       "coordinates":  [ -71.0587,42.3594 ]
    },
    "properties": {
    "FIELD1":1435,
    "Unnamed: 0":1435,
    "open_dt":"2017/2/2 7:53",
    "year":2017,
    "neighborhood":"Roxbury",
    "location":"INTERSECTION of Lambert St & Lambert Ave  Roxbury  MA  ",
    "location_street_name":"INTERSECTION Lambert St & Lambert Ave",
    "location_zipcode":null,
    "month":2
    }
  },
  {
    "type": "Feature",
    "geometry": {
       "type": "Point",
       "coordinates":  [ -71.0693,42.3294 ]
    },
    "properties": {
    "FIELD1":1436,
    "Unnamed: 0":1436,
    "open_dt":"2017/2/2 10:03",
    "year":2017,
    "neighborhood":"Roxbury",
    "location":"953 Massachusetts Ave  Roxbury  MA  02119",
    "location_street_name":"953 Massachusetts Ave",
    "location_zipcode":2119,
    "month":2
    }
  },
  {
    "type": "Feature",
    "geometry": {
       "type": "Point",
       "coordinates":  [ -71.0587,42.3594 ]
    },
    "properties": {
    "FIELD1":1437,
    "Unnamed: 0":1437,
    "open_dt":"2017/2/2 10:37",
    "year":2017,
    "neighborhood":"South Boston",
    "location":"INTERSECTION of Atkinson St & Southampton St  Roxbury  MA  ",
    "location_street_name":"INTERSECTION Atkinson St & Southampton St",
    "location_zipcode":null,
    "month":2
    }
  },
  {
    "type": "Feature",
    "geometry": {
       "type": "Point",
       "coordinates":  [ -71.0624,42.3727 ]
    },
    "properties": {
    "FIELD1":1438,
    "Unnamed: 0":1438,
    "open_dt":"2017/2/2 14:02",
    "year":2017,
    "neighborhood":"Charlestown",
    "location":"25 Harvard Sq  Charlestown  MA  02129",
    "location_street_name":"25 Harvard Sq",
    "location_zipcode":2129,
    "month":2
    }
  },
  {
    "type": "Feature",
    "geometry": {
       "type": "Point",
       "coordinates":  [ -71.0792,42.3135 ]
    },
    "properties": {
    "FIELD1":1439,
    "Unnamed: 0":1439,
    "open_dt":"2017/2/2 14:40",
    "year":2017,
    "neighborhood":"Roxbury",
    "location":"320A-320C Blue Hill Ave  Dorchester  MA  02121",
    "location_street_name":"320A-320C Blue Hill Ave",
    "location_zipcode":2121,
    "month":2
    }
  },
  {
    "type": "Feature",
    "geometry": {
       "type": "Point",
       "coordinates":  [ -71.0587,42.3594 ]
    },
    "properties": {
    "FIELD1":1440,
    "Unnamed: 0":1440,
    "open_dt":"2017/2/3 15:26",
    "year":2017,
    "neighborhood":"North End",
    "location":"",
    "location_street_name":"",
    "location_zipcode":null,
    "month":2
    }
  },
  {
    "type": "Feature",
    "geometry": {
       "type": "Point",
       "coordinates":  [ -71.0752,42.2919 ]
    },
    "properties": {
    "FIELD1":1441,
    "Unnamed: 0":1441,
    "open_dt":"2017/2/3 17:02",
    "year":2017,
    "neighborhood":"Dorchester",
    "location":"152 Spencer St  Dorchester  MA  02124",
    "location_street_name":"152 Spencer St",
    "location_zipcode":2124,
    "month":2
    }
  },
  {
    "type": "Feature",
    "geometry": {
       "type": "Point",
       "coordinates":  [ -71.0409,42.373 ]
    },
    "properties": {
    "FIELD1":1442,
    "Unnamed: 0":1442,
    "open_dt":"2017/2/5 15:10",
    "year":2017,
    "neighborhood":"East Boston",
    "location":"120 Liverpool St  East Boston  MA  02128",
    "location_street_name":"120 Liverpool St",
    "location_zipcode":2128,
    "month":2
    }
  },
  {
    "type": "Feature",
    "geometry": {
       "type": "Point",
       "coordinates":  [ -71.0575,42.3622 ]
    },
    "properties": {
    "FIELD1":1443,
    "Unnamed: 0":1443,
    "open_dt":"2017/2/5 17:06",
    "year":2017,
    "neighborhood":"North End",
    "location":"136 Blackstone St  Boston  MA  02108",
    "location_street_name":"136 Blackstone St",
    "location_zipcode":2108,
    "month":2
    }
  },
  {
    "type": "Feature",
    "geometry": {
       "type": "Point",
       "coordinates":  [ -71.0587,42.3594 ]
    },
    "properties": {
    "FIELD1":1444,
    "Unnamed: 0":1444,
    "open_dt":"2017/2/6 7:52",
    "year":2017,
    "neighborhood":"Allston / Brighton",
    "location":"INTERSECTION of Western Ave & Soldiers Field Rd  Brighton  MA  ",
    "location_street_name":"INTERSECTION Western Ave & Soldiers Field Rd",
    "location_zipcode":null,
    "month":2
    }
  },
  {
    "type": "Feature",
    "geometry": {
       "type": "Point",
       "coordinates":  [ -71.0822,42.3204 ]
    },
    "properties": {
    "FIELD1":1445,
    "Unnamed: 0":1445,
    "open_dt":"2017/2/6 10:31",
    "year":2017,
    "neighborhood":"Roxbury",
    "location":"301 Warren St  Roxbury  MA  02119",
    "location_street_name":"301 Warren St",
    "location_zipcode":2119,
    "month":2
    }
  },
  {
    "type": "Feature",
    "geometry": {
       "type": "Point",
       "coordinates":  [ -71.1016,42.3166 ]
    },
    "properties": {
    "FIELD1":1446,
    "Unnamed: 0":1446,
    "open_dt":"2017/2/6 13:32",
    "year":2017,
    "neighborhood":"Jamaica Plain",
    "location":"164 School St  Jamaica Plain  MA  02130",
    "location_street_name":"164 School St",
    "location_zipcode":2130,
    "month":2
    }
  },
  {
    "type": "Feature",
    "geometry": {
       "type": "Point",
       "coordinates":  [ -71.1024,42.3165 ]
    },
    "properties": {
    "FIELD1":1447,
    "Unnamed: 0":1447,
    "open_dt":"2017/2/6 18:41",
    "year":2017,
    "neighborhood":"Jamaica Plain",
    "location":"8 Boylston Pl  Jamaica Plain  MA  02130",
    "location_street_name":"8 Boylston Pl",
    "location_zipcode":2130,
    "month":2
    }
  },
  {
    "type": "Feature",
    "geometry": {
       "type": "Point",
       "coordinates":  [ -71.0587,42.3594 ]
    },
    "properties": {
    "FIELD1":1448,
    "Unnamed: 0":1448,
    "open_dt":"2017/2/7 6:47",
    "year":2017,
    "neighborhood":"North End",
    "location":"INTERSECTION of Oak St W & Shawmut Ave  Boston  MA  ",
    "location_street_name":"INTERSECTION Oak St W & Shawmut Ave",
    "location_zipcode":null,
    "month":2
    }
  },
  {
    "type": "Feature",
    "geometry": {
       "type": "Point",
       "coordinates":  [ -71.0365,42.3808 ]
    },
    "properties": {
    "FIELD1":1449,
    "Unnamed: 0":1449,
    "open_dt":"2017/2/7 18:47",
    "year":2017,
    "neighborhood":"East Boston",
    "location":"80-78 White St  East Boston  MA  02128",
    "location_street_name":"80-78 White St",
    "location_zipcode":2128,
    "month":2
    }
  },
  {
    "type": "Feature",
    "geometry": {
       "type": "Point",
       "coordinates":  [ -71.0689,42.3298 ]
    },
    "properties": {
    "FIELD1":1450,
    "Unnamed: 0":1450,
    "open_dt":"2017/2/8 9:01",
    "year":2017,
    "neighborhood":"South Boston",
    "location":"960 Massachusetts Ave  Roxbury  MA  02118",
    "location_street_name":"960 Massachusetts Ave",
    "location_zipcode":2118,
    "month":2
    }
  },
  {
    "type": "Feature",
    "geometry": {
       "type": "Point",
       "coordinates":  [ -71.098,42.3434 ]
    },
    "properties": {
    "FIELD1":1451,
    "Unnamed: 0":1451,
    "open_dt":"2017/2/8 9:15",
    "year":2017,
    "neighborhood":"Fenway",
    "location":"72 Peterborough St  Boston  MA  02215",
    "location_street_name":"72 Peterborough St",
    "location_zipcode":2215,
    "month":2
    }
  },
  {
    "type": "Feature",
    "geometry": {
       "type": "Point",
       "coordinates":  [ -71.0649,42.3408 ]
    },
    "properties": {
    "FIELD1":1452,
    "Unnamed: 0":1452,
    "open_dt":"2017/2/8 9:40",
    "year":2017,
    "neighborhood":"Roxbury",
    "location":"536-540 Harrison Ave  Roxbury  MA  02118",
    "location_street_name":"536-540 Harrison Ave",
    "location_zipcode":2118,
    "month":2
    }
  },
  {
    "type": "Feature",
    "geometry": {
       "type": "Point",
       "coordinates":  [ -71.0587,42.3594 ]
    },
    "properties": {
    "FIELD1":1453,
    "Unnamed: 0":1453,
    "open_dt":"2017/2/8 9:43",
    "year":2017,
    "neighborhood":"South End",
    "location":"INTERSECTION of Albany St & Randolph St  Roxbury  MA  ",
    "location_street_name":"INTERSECTION Albany St & Randolph St",
    "location_zipcode":null,
    "month":2
    }
  },
  {
    "type": "Feature",
    "geometry": {
       "type": "Point",
       "coordinates":  [ -71.0488,42.2796 ]
    },
    "properties": {
    "FIELD1":1454,
    "Unnamed: 0":1454,
    "open_dt":"2017/2/8 13:46",
    "year":2017,
    "neighborhood":"Dorchester",
    "location":"151 Hallet St  Dorchester  MA  02124",
    "location_street_name":"151 Hallet St",
    "location_zipcode":2124,
    "month":2
    }
  },
  {
    "type": "Feature",
    "geometry": {
       "type": "Point",
       "coordinates":  [ -71.0754,42.3369 ]
    },
    "properties": {
    "FIELD1":1455,
    "Unnamed: 0":1455,
    "open_dt":"2017/2/8 17:03",
    "year":2017,
    "neighborhood":"South End",
    "location":"1 Worcester Sq  Roxbury  MA  02118",
    "location_street_name":"1 Worcester Sq",
    "location_zipcode":2118,
    "month":2
    }
  },
  {
    "type": "Feature",
    "geometry": {
       "type": "Point",
       "coordinates":  [ -71.0714,42.3382 ]
    },
    "properties": {
    "FIELD1":1456,
    "Unnamed: 0":1456,
    "open_dt":"2017/2/10 22:25",
    "year":2017,
    "neighborhood":"South End",
    "location":"641 Harrison Ave  Roxbury  MA  02118",
    "location_street_name":"641 Harrison Ave",
    "location_zipcode":2118,
    "month":2
    }
  },
  {
    "type": "Feature",
    "geometry": {
       "type": "Point",
       "coordinates":  [ -71.0587,42.3594 ]
    },
    "properties": {
    "FIELD1":1457,
    "Unnamed: 0":1457,
    "open_dt":"2017/2/15 9:07",
    "year":2017,
    "neighborhood":"Jamaica Plain",
    "location":"INTERSECTION of School St & Washington St  Jamaica Plain  MA  ",
    "location_street_name":"INTERSECTION School St & Washington St",
    "location_zipcode":null,
    "month":2
    }
  },
  {
    "type": "Feature",
    "geometry": {
       "type": "Point",
       "coordinates":  [ -71.0672,42.3278 ]
    },
    "properties": {
    "FIELD1":1458,
    "Unnamed: 0":1458,
    "open_dt":"2017/2/15 10:18",
    "year":2017,
    "neighborhood":"South Boston",
    "location":"1006-1022 Massachusetts Ave  Roxbury  MA  02118",
    "location_street_name":"1006-1022 Massachusetts Ave",
    "location_zipcode":2118,
    "month":2
    }
  },
  {
    "type": "Feature",
    "geometry": {
       "type": "Point",
       "coordinates":  [ -71.0587,42.3594 ]
    },
    "properties": {
    "FIELD1":1459,
    "Unnamed: 0":1459,
    "open_dt":"2017/2/15 14:11",
    "year":2017,
    "neighborhood":"Roxbury",
    "location":"INTERSECTION of Hampden St & Albany St  Roxbury  MA  ",
    "location_street_name":"INTERSECTION Hampden St & Albany St",
    "location_zipcode":null,
    "month":2
    }
  },
  {
    "type": "Feature",
    "geometry": {
       "type": "Point",
       "coordinates":  [ -71.0791,42.3376 ]
    },
    "properties": {
    "FIELD1":1460,
    "Unnamed: 0":1460,
    "open_dt":"2017/2/15 14:31",
    "year":2017,
    "neighborhood":"Roxbury",
    "location":"561 Massachusetts Ave  Roxbury  MA  02118",
    "location_street_name":"561 Massachusetts Ave",
    "location_zipcode":2118,
    "month":2
    }
  },
  {
    "type": "Feature",
    "geometry": {
       "type": "Point",
       "coordinates":  [ -71.0587,42.3594 ]
    },
    "properties": {
    "FIELD1":1461,
    "Unnamed: 0":1461,
    "open_dt":"2017/2/15 14:55",
    "year":2017,
    "neighborhood":"Back Bay",
    "location":"INTERSECTION of Dartmouth St & Newbury St  Boston  MA  ",
    "location_street_name":"INTERSECTION Dartmouth St & Newbury St",
    "location_zipcode":null,
    "month":2
    }
  },
  {
    "type": "Feature",
    "geometry": {
       "type": "Point",
       "coordinates":  [ -71.0934,42.3232 ]
    },
    "properties": {
    "FIELD1":1462,
    "Unnamed: 0":1462,
    "open_dt":"2017/2/15 20:28",
    "year":2017,
    "neighborhood":"Roxbury",
    "location":"194 Highland St  Roxbury  MA  02119",
    "location_street_name":"194 Highland St",
    "location_zipcode":2119,
    "month":2
    }
  },
  {
    "type": "Feature",
    "geometry": {
       "type": "Point",
       "coordinates":  [ -71.1046,42.3338 ]
    },
    "properties": {
    "FIELD1":1463,
    "Unnamed: 0":1463,
    "open_dt":"2017/2/16 8:16",
    "year":2017,
    "neighborhood":"Mission Hill",
    "location":"1622-1630 Tremont St  Mission Hill  MA  02120",
    "location_street_name":"1622-1630 Tremont St",
    "location_zipcode":2120,
    "month":2
    }
  },
  {
    "type": "Feature",
    "geometry": {
       "type": "Point",
       "coordinates":  [ -71.0777,42.3374 ]
    },
    "properties": {
    "FIELD1":1464,
    "Unnamed: 0":1464,
    "open_dt":"2017/2/16 9:48",
    "year":2017,
    "neighborhood":"South End",
    "location":"600-602 Massachusetts Ave  Roxbury  MA  02118",
    "location_street_name":"600-602 Massachusetts Ave",
    "location_zipcode":2118,
    "month":2
    }
  },
  {
    "type": "Feature",
    "geometry": {
       "type": "Point",
       "coordinates":  [ -71.0722,42.3318 ]
    },
    "properties": {
    "FIELD1":1465,
    "Unnamed: 0":1465,
    "open_dt":"2017/2/17 7:37",
    "year":2017,
    "neighborhood":"Roxbury",
    "location":"11 Gerard St  Roxbury  MA  02119",
    "location_street_name":"11 Gerard St",
    "location_zipcode":2119,
    "month":2
    }
  },
  {
    "type": "Feature",
    "geometry": {
       "type": "Point",
       "coordinates":  [ -71.0587,42.3594 ]
    },
    "properties": {
    "FIELD1":1466,
    "Unnamed: 0":1466,
    "open_dt":"2017/2/17 14:08",
    "year":2017,
    "neighborhood":"South Boston",
    "location":"INTERSECTION of Old Colony Ave & D St  South Boston  MA  ",
    "location_street_name":"INTERSECTION Old Colony Ave & D St",
    "location_zipcode":null,
    "month":2
    }
  },
  {
    "type": "Feature",
    "geometry": {
       "type": "Point",
       "coordinates":  [ -71.0714,42.3831 ]
    },
    "properties": {
    "FIELD1":1467,
    "Unnamed: 0":1467,
    "open_dt":"2017/2/18 16:38",
    "year":2017,
    "neighborhood":"Charlestown",
    "location":"8 Charles St  Charlestown  MA  02129",
    "location_street_name":"8 Charles St",
    "location_zipcode":2129,
    "month":2
    }
  },
  {
    "type": "Feature",
    "geometry": {
       "type": "Point",
       "coordinates":  [ -71.0724,42.3486 ]
    },
    "properties": {
    "FIELD1":1468,
    "Unnamed: 0":1468,
    "open_dt":"2017/2/19 10:05",
    "year":2017,
    "neighborhood":"Back Bay",
    "location":"209 Columbus Ave  Boston  MA  02116",
    "location_street_name":"209 Columbus Ave",
    "location_zipcode":2116,
    "month":2
    }
  },
  {
    "type": "Feature",
    "geometry": {
       "type": "Point",
       "coordinates":  [ -71.0762,42.3361 ]
    },
    "properties": {
    "FIELD1":1469,
    "Unnamed: 0":1469,
    "open_dt":"2017/2/19 13:54",
    "year":2017,
    "neighborhood":"South End",
    "location":"660 Massachusetts Ave  Roxbury  MA  02118",
    "location_street_name":"660 Massachusetts Ave",
    "location_zipcode":2118,
    "month":2
    }
  },
  {
    "type": "Feature",
    "geometry": {
       "type": "Point",
       "coordinates":  [ -71.0587,42.3594 ]
    },
    "properties": {
    "FIELD1":1470,
    "Unnamed: 0":1470,
    "open_dt":"2017/2/19 13:55",
    "year":2017,
    "neighborhood":"Roxbury",
    "location":"INTERSECTION of Adams St & Dubois St  Roxbury  MA  ",
    "location_street_name":"INTERSECTION Adams St & Dubois St",
    "location_zipcode":null,
    "month":2
    }
  },
  {
    "type": "Feature",
    "geometry": {
       "type": "Point",
       "coordinates":  [ -71.0587,42.3594 ]
    },
    "properties": {
    "FIELD1":1471,
    "Unnamed: 0":1471,
    "open_dt":"2017/2/19 17:27",
    "year":2017,
    "neighborhood":"South Boston",
    "location":"INTERSECTION of Babe Ruth Park Dr & Columbia Rd  South Boston  MA  ",
    "location_street_name":"INTERSECTION Babe Ruth Park Dr & Columbia Rd",
    "location_zipcode":null,
    "month":2
    }
  },
  {
    "type": "Feature",
    "geometry": {
       "type": "Point",
       "coordinates":  [ -71.0754,42.3356 ]
    },
    "properties": {
    "FIELD1":1472,
    "Unnamed: 0":1472,
    "open_dt":"2017/2/19 19:42",
    "year":2017,
    "neighborhood":"South End",
    "location":"686 Massachusetts Ave  Roxbury  MA  02118",
    "location_street_name":"686 Massachusetts Ave",
    "location_zipcode":2118,
    "month":2
    }
  },
  {
    "type": "Feature",
    "geometry": {
       "type": "Point",
       "coordinates":  [ -71.0587,42.3594 ]
    },
    "properties": {
    "FIELD1":1473,
    "Unnamed: 0":1473,
    "open_dt":"2017/2/19 20:04",
    "year":2017,
    "neighborhood":"Jamaica Plain",
    "location":"INTERSECTION of Boylston St & Bismarck St  Jamaica Plain  MA  ",
    "location_street_name":"INTERSECTION Boylston St & Bismarck St",
    "location_zipcode":null,
    "month":2
    }
  },
  {
    "type": "Feature",
    "geometry": {
       "type": "Point",
       "coordinates":  [ -71.0587,42.3594 ]
    },
    "properties": {
    "FIELD1":1474,
    "Unnamed: 0":1474,
    "open_dt":"2017/2/20 8:22",
    "year":2017,
    "neighborhood":"South Boston",
    "location":"INTERSECTION of Woodward St & Dorchester Ave  South Boston  MA  ",
    "location_street_name":"INTERSECTION Woodward St & Dorchester Ave",
    "location_zipcode":null,
    "month":2
    }
  },
  {
    "type": "Feature",
    "geometry": {
       "type": "Point",
       "coordinates":  [ -71.1223,42.2882 ]
    },
    "properties": {
    "FIELD1":1475,
    "Unnamed: 0":1475,
    "open_dt":"2017/2/20 10:41",
    "year":2017,
    "neighborhood":"Roslindale",
    "location":"160 Florence St  Roslindale  MA  02131",
    "location_street_name":"160 Florence St",
    "location_zipcode":2131,
    "month":2
    }
  },
  {
    "type": "Feature",
    "geometry": {
       "type": "Point",
       "coordinates":  [ -71.0587,42.3594 ]
    },
    "properties": {
    "FIELD1":1476,
    "Unnamed: 0":1476,
    "open_dt":"2017/2/20 13:57",
    "year":2017,
    "neighborhood":"Roxbury",
    "location":"INTERSECTION of Allerton St & Chesterton St  Roxbury  MA  ",
    "location_street_name":"INTERSECTION Allerton St & Chesterton St",
    "location_zipcode":null,
    "month":2
    }
  },
  {
    "type": "Feature",
    "geometry": {
       "type": "Point",
       "coordinates":  [ -71.0587,42.3594 ]
    },
    "properties": {
    "FIELD1":1477,
    "Unnamed: 0":1477,
    "open_dt":"2017/2/20 14:18",
    "year":2017,
    "neighborhood":"Dorchester",
    "location":"INTERSECTION of Southampton St & Frontage Rd  Dorchester  MA  ",
    "location_street_name":"INTERSECTION Southampton St & Frontage Rd",
    "location_zipcode":null,
    "month":2
    }
  },
  {
    "type": "Feature",
    "geometry": {
       "type": "Point",
       "coordinates":  [ -71.0586,42.3303 ]
    },
    "properties": {
    "FIELD1":1478,
    "Unnamed: 0":1478,
    "open_dt":"2017/2/20 14:26",
    "year":2017,
    "neighborhood":"South Boston",
    "location":"7-11 Ellery St  South Boston  MA  02127",
    "location_street_name":"7-11 Ellery St",
    "location_zipcode":2127,
    "month":2
    }
  },
  {
    "type": "Feature",
    "geometry": {
       "type": "Point",
       "coordinates":  [ -71.068,42.3394 ]
    },
    "properties": {
    "FIELD1":1479,
    "Unnamed: 0":1479,
    "open_dt":"2017/2/20 15:49",
    "year":2017,
    "neighborhood":"South End",
    "location":"39 Wareham St  Roxbury  MA  02118",
    "location_street_name":"39 Wareham St",
    "location_zipcode":2118,
    "month":2
    }
  },
  {
    "type": "Feature",
    "geometry": {
       "type": "Point",
       "coordinates":  [ -71.1036,42.3043 ]
    },
    "properties": {
    "FIELD1":1480,
    "Unnamed: 0":1480,
    "open_dt":"2017/2/20 16:20",
    "year":2017,
    "neighborhood":"Jamaica Plain",
    "location":"235 Forest Hills St  Jamaica Plain  MA  02130",
    "location_street_name":"235 Forest Hills St",
    "location_zipcode":2130,
    "month":2
    }
  },
  {
    "type": "Feature",
    "geometry": {
       "type": "Point",
       "coordinates":  [ -71.0749,42.3355 ]
    },
    "properties": {
    "FIELD1":1481,
    "Unnamed: 0":1481,
    "open_dt":"2017/2/20 21:41",
    "year":2017,
    "neighborhood":"South End",
    "location":"55 E Springfield St  Roxbury  MA  02118",
    "location_street_name":"55 E Springfield St",
    "location_zipcode":2118,
    "month":2
    }
  },
  {
    "type": "Feature",
    "geometry": {
       "type": "Point",
       "coordinates":  [ -71.0587,42.3594 ]
    },
    "properties": {
    "FIELD1":1482,
    "Unnamed: 0":1482,
    "open_dt":"2017/2/21 6:52",
    "year":2017,
    "neighborhood":"Dorchester",
    "location":"INTERSECTION of King St & Neponset Ave  Dorchester  MA  ",
    "location_street_name":"INTERSECTION King St & Neponset Ave",
    "location_zipcode":null,
    "month":2
    }
  },
  {
    "type": "Feature",
    "geometry": {
       "type": "Point",
       "coordinates":  [ -71.0713,42.3296 ]
    },
    "properties": {
    "FIELD1":1483,
    "Unnamed: 0":1483,
    "open_dt":"2017/2/21 8:40",
    "year":2017,
    "neighborhood":"Roxbury",
    "location":"24 Chesterton St  Roxbury  MA  02119",
    "location_street_name":"24 Chesterton St",
    "location_zipcode":2119,
    "month":2
    }
  },
  {
    "type": "Feature",
    "geometry": {
       "type": "Point",
       "coordinates":  [ -71.0587,42.3594 ]
    },
    "properties": {
    "FIELD1":1484,
    "Unnamed: 0":1484,
    "open_dt":"2017/2/21 13:10",
    "year":2017,
    "neighborhood":"South End",
    "location":"INTERSECTION of Savoy St & Washington St  Roxbury  MA  ",
    "location_street_name":"INTERSECTION Savoy St & Washington St",
    "location_zipcode":null,
    "month":2
    }
  },
  {
    "type": "Feature",
    "geometry": {
       "type": "Point",
       "coordinates":  [ -71.0587,42.3054 ]
    },
    "properties": {
    "FIELD1":1485,
    "Unnamed: 0":1485,
    "open_dt":"2017/2/21 18:26",
    "year":2017,
    "neighborhood":"Dorchester",
    "location":"1326 Dorchester Ave  Dorchester  MA  02122",
    "location_street_name":"1326 Dorchester Ave",
    "location_zipcode":2122,
    "month":2
    }
  },
  {
    "type": "Feature",
    "geometry": {
       "type": "Point",
       "coordinates":  [ -71.0587,42.3594 ]
    },
    "properties": {
    "FIELD1":1486,
    "Unnamed: 0":1486,
    "open_dt":"2017/2/22 9:56",
    "year":2017,
    "neighborhood":"Roxbury",
    "location":"INTERSECTION of Allerton St & Chesterton St  Roxbury  MA  ",
    "location_street_name":"INTERSECTION Allerton St & Chesterton St",
    "location_zipcode":null,
    "month":2
    }
  },
  {
    "type": "Feature",
    "geometry": {
       "type": "Point",
       "coordinates":  [ -71.0601,42.3648 ]
    },
    "properties": {
    "FIELD1":1487,
    "Unnamed: 0":1487,
    "open_dt":"2017/2/22 11:07",
    "year":2017,
    "neighborhood":"North End",
    "location":"103 Canal St  Boston  MA  02114",
    "location_street_name":"103 Canal St",
    "location_zipcode":2114,
    "month":2
    }
  },
  {
    "type": "Feature",
    "geometry": {
       "type": "Point",
       "coordinates":  [ -71.0587,42.3594 ]
    },
    "properties": {
    "FIELD1":1488,
    "Unnamed: 0":1488,
    "open_dt":"2017/2/22 11:41",
    "year":2017,
    "neighborhood":"South Boston",
    "location":"INTERSECTION of Massachusetts Ave & Peirson St  Roxbury  MA  ",
    "location_street_name":"INTERSECTION Massachusetts Ave & Peirson St",
    "location_zipcode":null,
    "month":2
    }
  },
  {
    "type": "Feature",
    "geometry": {
       "type": "Point",
       "coordinates":  [ -71.0731,42.338 ]
    },
    "properties": {
    "FIELD1":1489,
    "Unnamed: 0":1489,
    "open_dt":"2017/2/22 11:56",
    "year":2017,
    "neighborhood":"South End",
    "location":"19 Father Francis J Gilday St  Roxbury  MA  02118",
    "location_street_name":"19 Father Francis J Gilday St",
    "location_zipcode":2118,
    "month":2
    }
  },
  {
    "type": "Feature",
    "geometry": {
       "type": "Point",
       "coordinates":  [ -71.0688,42.3779 ]
    },
    "properties": {
    "FIELD1":1490,
    "Unnamed: 0":1490,
    "open_dt":"2017/2/22 14:18",
    "year":2017,
    "neighborhood":"Charlestown",
    "location":"2 Tibbett's Town Way  Charlestown  MA  02129",
    "location_street_name":"2 Tibbett's Town Way",
    "location_zipcode":2129,
    "month":2
    }
  },
  {
    "type": "Feature",
    "geometry": {
       "type": "Point",
       "coordinates":  [ -71.0758,42.3363 ]
    },
    "properties": {
    "FIELD1":1491,
    "Unnamed: 0":1491,
    "open_dt":"2017/2/23 7:19",
    "year":2017,
    "neighborhood":"South End",
    "location":"21 E Springfield St  Roxbury  MA  02118",
    "location_street_name":"21 E Springfield St",
    "location_zipcode":2118,
    "month":2
    }
  },
  {
    "type": "Feature",
    "geometry": {
       "type": "Point",
       "coordinates":  [ -71.0587,42.3594 ]
    },
    "properties": {
    "FIELD1":1492,
    "Unnamed: 0":1492,
    "open_dt":"2017/2/23 10:51",
    "year":2017,
    "neighborhood":"Dorchester",
    "location":"INTERSECTION of Granite Ave & Milton St  Dorchester  MA  ",
    "location_street_name":"INTERSECTION Granite Ave & Milton St",
    "location_zipcode":null,
    "month":2
    }
  },
  {
    "type": "Feature",
    "geometry": {
       "type": "Point",
       "coordinates":  [ -71.1076,42.3119 ]
    },
    "properties": {
    "FIELD1":1493,
    "Unnamed: 0":1493,
    "open_dt":"2017/2/23 14:52",
    "year":2017,
    "neighborhood":"Jamaica Plain",
    "location":"3 Oakdale Ter  Jamaica Plain  MA  02130",
    "location_street_name":"3 Oakdale Ter",
    "location_zipcode":2130,
    "month":2
    }
  },
  {
    "type": "Feature",
    "geometry": {
       "type": "Point",
       "coordinates":  [ -71.0385,42.3349 ]
    },
    "properties": {
    "FIELD1":1494,
    "Unnamed: 0":1494,
    "open_dt":"2017/2/24 8:19",
    "year":2017,
    "neighborhood":"South Boston",
    "location":"650 E Fourth St  South Boston  MA  02127",
    "location_street_name":"650 E Fourth St",
    "location_zipcode":2127,
    "month":2
    }
  },
  {
    "type": "Feature",
    "geometry": {
       "type": "Point",
       "coordinates":  [ -71.0369,42.3341 ]
    },
    "properties": {
    "FIELD1":1495,
    "Unnamed: 0":1495,
    "open_dt":"2017/2/24 8:23",
    "year":2017,
    "neighborhood":"South Boston",
    "location":"584 E Fifth St  South Boston  MA  02127",
    "location_street_name":"584 E Fifth St",
    "location_zipcode":2127,
    "month":2
    }
  },
  {
    "type": "Feature",
    "geometry": {
       "type": "Point",
       "coordinates":  [ -71.0693,42.3294 ]
    },
    "properties": {
    "FIELD1":1496,
    "Unnamed: 0":1496,
    "open_dt":"2017/2/24 14:57",
    "year":2017,
    "neighborhood":"Roxbury",
    "location":"953 Massachusetts Ave  Roxbury  MA  02119",
    "location_street_name":"953 Massachusetts Ave",
    "location_zipcode":2119,
    "month":2
    }
  },
  {
    "type": "Feature",
    "geometry": {
       "type": "Point",
       "coordinates":  [ -71.0676,42.3148 ]
    },
    "properties": {
    "FIELD1":1497,
    "Unnamed: 0":1497,
    "open_dt":"2017/2/24 16:02",
    "year":2017,
    "neighborhood":"Dorchester",
    "location":"500 Columbia Rd  Dorchester  MA  02125",
    "location_street_name":"500 Columbia Rd",
    "location_zipcode":2125,
    "month":2
    }
  },
  {
    "type": "Feature",
    "geometry": {
       "type": "Point",
       "coordinates":  [ -71.0642,42.3273 ]
    },
    "properties": {
    "FIELD1":1498,
    "Unnamed: 0":1498,
    "open_dt":"2017/2/24 17:01",
    "year":2017,
    "neighborhood":"Dorchester",
    "location":"8-8a Allstate Rd  Dorchester  MA  02125",
    "location_street_name":"8-8a Allstate Rd",
    "location_zipcode":2125,
    "month":2
    }
  },
  {
    "type": "Feature",
    "geometry": {
       "type": "Point",
       "coordinates":  [ -71.1043,42.3116 ]
    },
    "properties": {
    "FIELD1":1499,
    "Unnamed: 0":1499,
    "open_dt":"2017/2/24 17:13",
    "year":2017,
    "neighborhood":"Jamaica Plain",
    "location":"40 Cornwall St  Jamaica Plain  MA  02130",
    "location_street_name":"40 Cornwall St",
    "location_zipcode":2130,
    "month":2
    }
  },
  {
    "type": "Feature",
    "geometry": {
       "type": "Point",
       "coordinates":  [ -71.0627,42.3539 ]
    },
    "properties": {
    "FIELD1":1500,
    "Unnamed: 0":1500,
    "open_dt":"2017/2/24 17:38",
    "year":2017,
    "neighborhood":"North End",
    "location":"545 Washington St  Boston  MA  02111",
    "location_street_name":"545 Washington St",
    "location_zipcode":2111,
    "month":2
    }
  },
  {
    "type": "Feature",
    "geometry": {
       "type": "Point",
       "coordinates":  [ -71.0676,42.3148 ]
    },
    "properties": {
    "FIELD1":1501,
    "Unnamed: 0":1501,
    "open_dt":"2017/2/25 11:04",
    "year":2017,
    "neighborhood":"Dorchester",
    "location":"500 Columbia Rd  Dorchester  MA  02125",
    "location_street_name":"500 Columbia Rd",
    "location_zipcode":2125,
    "month":2
    }
  },
  {
    "type": "Feature",
    "geometry": {
       "type": "Point",
       "coordinates":  [ -71.0587,42.3594 ]
    },
    "properties": {
    "FIELD1":1502,
    "Unnamed: 0":1502,
    "open_dt":"2017/2/24 20:25",
    "year":2017,
    "neighborhood":"South End",
    "location":"INTERSECTION of Columbus Ave & Rutland Sq  Roxbury  MA  ",
    "location_street_name":"INTERSECTION Columbus Ave & Rutland Sq",
    "location_zipcode":null,
    "month":2
    }
  },
  {
    "type": "Feature",
    "geometry": {
       "type": "Point",
       "coordinates":  [ -71.0751,42.3353 ]
    },
    "properties": {
    "FIELD1":1503,
    "Unnamed: 0":1503,
    "open_dt":"2017/2/25 9:44",
    "year":2017,
    "neighborhood":"South End",
    "location":"698 Massachusetts Ave  Roxbury  MA  02118",
    "location_street_name":"698 Massachusetts Ave",
    "location_zipcode":2118,
    "month":2
    }
  },
  {
    "type": "Feature",
    "geometry": {
       "type": "Point",
       "coordinates":  [ -71.0919,42.3352 ]
    },
    "properties": {
    "FIELD1":1504,
    "Unnamed: 0":1504,
    "open_dt":"2017/2/25 11:22",
    "year":2017,
    "neighborhood":"Mission Hill",
    "location":"38 Annunciation Rd  Mission Hill  MA  02120",
    "location_street_name":"38 Annunciation Rd",
    "location_zipcode":2120,
    "month":2
    }
  },
  {
    "type": "Feature",
    "geometry": {
       "type": "Point",
       "coordinates":  [ -71.0765,42.3296 ]
    },
    "properties": {
    "FIELD1":1505,
    "Unnamed: 0":1505,
    "open_dt":"2017/2/25 11:49",
    "year":2017,
    "neighborhood":"Roxbury",
    "location":"50 Orchard Park St  Roxbury  MA  02119",
    "location_street_name":"50 Orchard Park St",
    "location_zipcode":2119,
    "month":2
    }
  },
  {
    "type": "Feature",
    "geometry": {
       "type": "Point",
       "coordinates":  [ -71.0807,42.34 ]
    },
    "properties": {
    "FIELD1":1506,
    "Unnamed: 0":1506,
    "open_dt":"2017/2/25 12:56",
    "year":2017,
    "neighborhood":"South End",
    "location":"476 Massachusetts Ave  Roxbury  MA  02118",
    "location_street_name":"476 Massachusetts Ave",
    "location_zipcode":2118,
    "month":2
    }
  },
  {
    "type": "Feature",
    "geometry": {
       "type": "Point",
       "coordinates":  [ -71.0587,42.3594 ]
    },
    "properties": {
    "FIELD1":1507,
    "Unnamed: 0":1507,
    "open_dt":"2017/2/25 15:23",
    "year":2017,
    "neighborhood":"Roxbury",
    "location":"INTERSECTION of Newcomb St & Harrison Ave  Roxbury  MA  ",
    "location_street_name":"INTERSECTION Newcomb St & Harrison Ave",
    "location_zipcode":null,
    "month":2
    }
  },
  {
    "type": "Feature",
    "geometry": {
       "type": "Point",
       "coordinates":  [ -71.0559,42.3637 ]
    },
    "properties": {
    "FIELD1":1508,
    "Unnamed: 0":1508,
    "open_dt":"2017/2/25 16:44",
    "year":2017,
    "neighborhood":"North End",
    "location":"78-80A Salem St  Boston  MA  02113",
    "location_street_name":"78-80A Salem St",
    "location_zipcode":2113,
    "month":2
    }
  },
  {
    "type": "Feature",
    "geometry": {
       "type": "Point",
       "coordinates":  [ -71.0667,42.3428 ]
    },
    "properties": {
    "FIELD1":1509,
    "Unnamed: 0":1509,
    "open_dt":"2017/2/26 11:04",
    "year":2017,
    "neighborhood":"South End",
    "location":"1222 Washington St  Roxbury  MA  02118",
    "location_street_name":"1222 Washington St",
    "location_zipcode":2118,
    "month":2
    }
  },
  {
    "type": "Feature",
    "geometry": {
       "type": "Point",
       "coordinates":  [ -71.0722,42.3318 ]
    },
    "properties": {
    "FIELD1":1510,
    "Unnamed: 0":1510,
    "open_dt":"2017/2/26 16:17",
    "year":2017,
    "neighborhood":"Roxbury",
    "location":"11 Gerard St  Roxbury  MA  02119",
    "location_street_name":"11 Gerard St",
    "location_zipcode":2119,
    "month":2
    }
  },
  {
    "type": "Feature",
    "geometry": {
       "type": "Point",
       "coordinates":  [ -71.0787,42.3188 ]
    },
    "properties": {
    "FIELD1":1511,
    "Unnamed: 0":1511,
    "open_dt":"2017/2/27 7:37",
    "year":2017,
    "neighborhood":"Roxbury",
    "location":"44 Woodbine St  Roxbury  MA  02119",
    "location_street_name":"44 Woodbine St",
    "location_zipcode":2119,
    "month":2
    }
  },
  {
    "type": "Feature",
    "geometry": {
       "type": "Point",
       "coordinates":  [ -71.0363,42.3811 ]
    },
    "properties": {
    "FIELD1":1512,
    "Unnamed: 0":1512,
    "open_dt":"2017/2/27 10:06",
    "year":2017,
    "neighborhood":"East Boston",
    "location":"216 Brooks St  East Boston  MA  02128",
    "location_street_name":"216 Brooks St",
    "location_zipcode":2128,
    "month":2
    }
  },
  {
    "type": "Feature",
    "geometry": {
       "type": "Point",
       "coordinates":  [ -71.0897,42.2909 ]
    },
    "properties": {
    "FIELD1":1513,
    "Unnamed: 0":1513,
    "open_dt":"2017/2/27 11:24",
    "year":2017,
    "neighborhood":"Dorchester",
    "location":"975 Blue Hill Ave  Dorchester  MA  02124",
    "location_street_name":"975 Blue Hill Ave",
    "location_zipcode":2124,
    "month":2
    }
  },
  {
    "type": "Feature",
    "geometry": {
       "type": "Point",
       "coordinates":  [ -71.1482,42.3557 ]
    },
    "properties": {
    "FIELD1":1514,
    "Unnamed: 0":1514,
    "open_dt":"2017/2/27 13:18",
    "year":2017,
    "neighborhood":"Allston / Brighton",
    "location":"200 N Beacon St  Brighton  MA  02135",
    "location_street_name":"200 N Beacon St",
    "location_zipcode":2135,
    "month":2
    }
  },
  {
    "type": "Feature",
    "geometry": {
       "type": "Point",
       "coordinates":  [ -71.0587,42.3594 ]
    },
    "properties": {
    "FIELD1":1515,
    "Unnamed: 0":1515,
    "open_dt":"2017/2/27 16:40",
    "year":2017,
    "neighborhood":"South Boston",
    "location":"INTERSECTION of Chesterton St & Massachusetts Ave  Roxbury  MA  ",
    "location_street_name":"INTERSECTION Chesterton St & Massachusetts Ave",
    "location_zipcode":null,
    "month":2
    }
  },
  {
    "type": "Feature",
    "geometry": {
       "type": "Point",
       "coordinates":  [ -71.0627,42.3311 ]
    },
    "properties": {
    "FIELD1":1516,
    "Unnamed: 0":1516,
    "open_dt":"2017/2/27 16:56",
    "year":2017,
    "neighborhood":"South Boston",
    "location":"290 Southampton St  South Boston  MA  02127",
    "location_street_name":"290 Southampton St",
    "location_zipcode":2127,
    "month":2
    }
  },
  {
    "type": "Feature",
    "geometry": {
       "type": "Point",
       "coordinates":  [ -71.0587,42.3594 ]
    },
    "properties": {
    "FIELD1":1517,
    "Unnamed: 0":1517,
    "open_dt":"2017/2/28 11:03",
    "year":2017,
    "neighborhood":"Charlestown",
    "location":"INTERSECTION of Sullivan Sq & Alford St  Charlestown  MA  ",
    "location_street_name":"INTERSECTION Sullivan Sq & Alford St",
    "location_zipcode":null,
    "month":2
    }
  },
  {
    "type": "Feature",
    "geometry": {
       "type": "Point",
       "coordinates":  [ -71.0587,42.3594 ]
    },
    "properties": {
    "FIELD1":1518,
    "Unnamed: 0":1518,
    "open_dt":"2017/2/28 11:32",
    "year":2017,
    "neighborhood":"Charlestown",
    "location":"INTERSECTION of Pearl St & Medford St  Charlestown  MA  ",
    "location_street_name":"INTERSECTION Pearl St & Medford St",
    "location_zipcode":null,
    "month":2
    }
  },
  {
    "type": "Feature",
    "geometry": {
       "type": "Point",
       "coordinates":  [ -71.065,42.3434 ]
    },
    "properties": {
    "FIELD1":1519,
    "Unnamed: 0":1519,
    "open_dt":"2017/2/28 17:25",
    "year":2017,
    "neighborhood":"South End",
    "location":"40 Fay St  Roxbury  MA  02118",
    "location_street_name":"40 Fay St",
    "location_zipcode":2118,
    "month":2
    }
  },
  {
    "type": "Feature",
    "geometry": {
       "type": "Point",
       "coordinates":  [ -71.1017,42.3149 ]
    },
    "properties": {
    "FIELD1":1520,
    "Unnamed: 0":1520,
    "open_dt":"2017/2/28 18:35",
    "year":2017,
    "neighborhood":"Jamaica Plain",
    "location":"184 Boylston St  Jamaica Plain  MA  02130",
    "location_street_name":"184 Boylston St",
    "location_zipcode":2130,
    "month":2
    }
  },
  {
    "type": "Feature",
    "geometry": {
       "type": "Point",
       "coordinates":  [ -71.0587,42.3594 ]
    },
    "properties": {
    "FIELD1":1521,
    "Unnamed: 0":1521,
    "open_dt":"2017/2/28 21:10",
    "year":2017,
    "neighborhood":"Jamaica Plain",
    "location":"INTERSECTION of Boylston St & Brookside Ave  Jamaica Plain  MA  ",
    "location_street_name":"INTERSECTION Boylston St & Brookside Ave",
    "location_zipcode":null,
    "month":2
    }
  },
  {
    "type": "Feature",
    "geometry": {
       "type": "Point",
       "coordinates":  [ -71.0968,42.3137 ]
    },
    "properties": {
    "FIELD1":1522,
    "Unnamed: 0":1522,
    "open_dt":"2017/3/1 7:13",
    "year":2017,
    "neighborhood":"Jamaica Plain",
    "location":"14 Cleaves St  Roxbury  MA  02119",
    "location_street_name":"14 Cleaves St",
    "location_zipcode":2119,
    "month":3
    }
  },
  {
    "type": "Feature",
    "geometry": {
       "type": "Point",
       "coordinates":  [ -71.0667,42.3428 ]
    },
    "properties": {
    "FIELD1":1523,
    "Unnamed: 0":1523,
    "open_dt":"2017/3/1 9:15",
    "year":2017,
    "neighborhood":"South End",
    "location":"1222-1222A Washington St  Roxbury  MA  02118",
    "location_street_name":"1222-1222A Washington St",
    "location_zipcode":2118,
    "month":3
    }
  },
  {
    "type": "Feature",
    "geometry": {
       "type": "Point",
       "coordinates":  [ -71.0693,42.3294 ]
    },
    "properties": {
    "FIELD1":1524,
    "Unnamed: 0":1524,
    "open_dt":"2017/3/1 9:53",
    "year":2017,
    "neighborhood":"Roxbury",
    "location":"953 Massachusetts Ave  Roxbury  MA  02118",
    "location_street_name":"953 Massachusetts Ave",
    "location_zipcode":2118,
    "month":3
    }
  },
  {
    "type": "Feature",
    "geometry": {
       "type": "Point",
       "coordinates":  [ -71.0657,42.3308 ]
    },
    "properties": {
    "FIELD1":1525,
    "Unnamed: 0":1525,
    "open_dt":"2017/3/1 14:03",
    "year":2017,
    "neighborhood":"Roxbury",
    "location":"225 Southampton St  Roxbury  MA  02118",
    "location_street_name":"225 Southampton St",
    "location_zipcode":2118,
    "month":3
    }
  },
  {
    "type": "Feature",
    "geometry": {
       "type": "Point",
       "coordinates":  [ -71.1154,42.3001 ]
    },
    "properties": {
    "FIELD1":1526,
    "Unnamed: 0":1526,
    "open_dt":"2017/3/1 16:05",
    "year":2017,
    "neighborhood":"Jamaica Plain",
    "location":"22-22A Asticou Rd  Roslindale  MA  02131",
    "location_street_name":"22-22A Asticou Rd",
    "location_zipcode":2131,
    "month":3
    }
  },
  {
    "type": "Feature",
    "geometry": {
       "type": "Point",
       "coordinates":  [ -71.0546,42.2859 ]
    },
    "properties": {
    "FIELD1":1527,
    "Unnamed: 0":1527,
    "open_dt":"2017/3/1 17:56",
    "year":2017,
    "neighborhood":"Dorchester",
    "location":"698 Adams St  Dorchester  MA  02122",
    "location_street_name":"698 Adams St",
    "location_zipcode":2122,
    "month":3
    }
  },
  {
    "type": "Feature",
    "geometry": {
       "type": "Point",
       "coordinates":  [ -71.0728,42.3038 ]
    },
    "properties": {
    "FIELD1":1528,
    "Unnamed: 0":1528,
    "open_dt":"2017/3/1 19:41",
    "year":2017,
    "neighborhood":"Dorchester",
    "location":"275 Geneva Ave  Dorchester  MA  02121",
    "location_street_name":"275 Geneva Ave",
    "location_zipcode":2121,
    "month":3
    }
  },
  {
    "type": "Feature",
    "geometry": {
       "type": "Point",
       "coordinates":  [ -71.061,42.365 ]
    },
    "properties": {
    "FIELD1":1529,
    "Unnamed: 0":1529,
    "open_dt":"2017/3/1 20:59",
    "year":2017,
    "neighborhood":"North End",
    "location":"166 Canal St  Boston  MA  02114",
    "location_street_name":"166 Canal St",
    "location_zipcode":2114,
    "month":3
    }
  },
  {
    "type": "Feature",
    "geometry": {
       "type": "Point",
       "coordinates":  [ -71.076,42.336 ]
    },
    "properties": {
    "FIELD1":1530,
    "Unnamed: 0":1530,
    "open_dt":"2017/3/2 9:00",
    "year":2017,
    "neighborhood":"South End",
    "location":"666 Massachusetts Ave  Roxbury  MA  02118",
    "location_street_name":"666 Massachusetts Ave",
    "location_zipcode":2118,
    "month":3
    }
  },
  {
    "type": "Feature",
    "geometry": {
       "type": "Point",
       "coordinates":  [ -71.0587,42.3594 ]
    },
    "properties": {
    "FIELD1":1531,
    "Unnamed: 0":1531,
    "open_dt":"2017/3/2 22:16",
    "year":2017,
    "neighborhood":"Dorchester",
    "location":"INTERSECTION of Boston St & Dorset St  Dorchester  MA  ",
    "location_street_name":"INTERSECTION Boston St & Dorset St",
    "location_zipcode":null,
    "month":3
    }
  },
  {
    "type": "Feature",
    "geometry": {
       "type": "Point",
       "coordinates":  [ -71.0787,42.3243 ]
    },
    "properties": {
    "FIELD1":1532,
    "Unnamed: 0":1532,
    "open_dt":"2017/3/3 8:04",
    "year":2017,
    "neighborhood":"Roxbury",
    "location":"68 Moreland St  Roxbury  MA  02119",
    "location_street_name":"68 Moreland St",
    "location_zipcode":2119,
    "month":3
    }
  },
  {
    "type": "Feature",
    "geometry": {
       "type": "Point",
       "coordinates":  [ -71.0693,42.3294 ]
    },
    "properties": {
    "FIELD1":1533,
    "Unnamed: 0":1533,
    "open_dt":"2017/3/3 11:17",
    "year":2017,
    "neighborhood":"Roxbury",
    "location":"953 Massachusetts Ave  Roxbury  MA  02119",
    "location_street_name":"953 Massachusetts Ave",
    "location_zipcode":2119,
    "month":3
    }
  },
  {
    "type": "Feature",
    "geometry": {
       "type": "Point",
       "coordinates":  [ -71.0837,42.3301 ]
    },
    "properties": {
    "FIELD1":1534,
    "Unnamed: 0":1534,
    "open_dt":"2017/3/3 13:57",
    "year":2017,
    "neighborhood":"Roxbury",
    "location":"2300 Washington St  Roxbury  MA  02119",
    "location_street_name":"2300 Washington St",
    "location_zipcode":2119,
    "month":3
    }
  },
  {
    "type": "Feature",
    "geometry": {
       "type": "Point",
       "coordinates":  [ -71.0635,42.3762 ]
    },
    "properties": {
    "FIELD1":1535,
    "Unnamed: 0":1535,
    "open_dt":"2017/3/3 15:55",
    "year":2017,
    "neighborhood":"Charlestown",
    "location":"14 Green St  Charlestown  MA  02129",
    "location_street_name":"14 Green St",
    "location_zipcode":2129,
    "month":3
    }
  },
  {
    "type": "Feature",
    "geometry": {
       "type": "Point",
       "coordinates":  [ -71.0587,42.3594 ]
    },
    "properties": {
    "FIELD1":1536,
    "Unnamed: 0":1536,
    "open_dt":"2017/3/5 7:53",
    "year":2017,
    "neighborhood":"Dorchester",
    "location":"INTERSECTION of Butler St & Huntoon St  Dorchester  MA  ",
    "location_street_name":"INTERSECTION Butler St & Huntoon St",
    "location_zipcode":null,
    "month":3
    }
  },
  {
    "type": "Feature",
    "geometry": {
       "type": "Point",
       "coordinates":  [ -71.0587,42.3594 ]
    },
    "properties": {
    "FIELD1":1537,
    "Unnamed: 0":1537,
    "open_dt":"2017/3/5 8:10",
    "year":2017,
    "neighborhood":"Dorchester",
    "location":"INTERSECTION of Butler St & Huntoon St  Dorchester  MA  ",
    "location_street_name":"INTERSECTION Butler St & Huntoon St",
    "location_zipcode":null,
    "month":3
    }
  },
  {
    "type": "Feature",
    "geometry": {
       "type": "Point",
       "coordinates":  [ -71.1067,42.3101 ]
    },
    "properties": {
    "FIELD1":1538,
    "Unnamed: 0":1538,
    "open_dt":"2017/3/6 12:29",
    "year":2017,
    "neighborhood":"Jamaica Plain",
    "location":"157-161 Green St  Jamaica Plain  MA  02130",
    "location_street_name":"157-161 Green St",
    "location_zipcode":2130,
    "month":3
    }
  },
  {
    "type": "Feature",
    "geometry": {
       "type": "Point",
       "coordinates":  [ -71.0787,42.3243 ]
    },
    "properties": {
    "FIELD1":1539,
    "Unnamed: 0":1539,
    "open_dt":"2017/3/6 16:46",
    "year":2017,
    "neighborhood":"Roxbury",
    "location":"68 Moreland St  Roxbury  MA  02119",
    "location_street_name":"68 Moreland St",
    "location_zipcode":2119,
    "month":3
    }
  },
  {
    "type": "Feature",
    "geometry": {
       "type": "Point",
       "coordinates":  [ -71.1017,42.3137 ]
    },
    "properties": {
    "FIELD1":1540,
    "Unnamed: 0":1540,
    "open_dt":"2017/3/7 9:14",
    "year":2017,
    "neighborhood":"Jamaica Plain",
    "location":"2 Germania St  Jamaica Plain  MA  02130",
    "location_street_name":"2 Germania St",
    "location_zipcode":2130,
    "month":3
    }
  },
  {
    "type": "Feature",
    "geometry": {
       "type": "Point",
       "coordinates":  [ -71.0587,42.3594 ]
    },
    "properties": {
    "FIELD1":1541,
    "Unnamed: 0":1541,
    "open_dt":"2017/3/8 7:50",
    "year":2017,
    "neighborhood":"Roxbury",
    "location":"INTERSECTION of Shetland St & Shirley St  Roxbury  MA  ",
    "location_street_name":"INTERSECTION Shetland St & Shirley St",
    "location_zipcode":null,
    "month":3
    }
  },
  {
    "type": "Feature",
    "geometry": {
       "type": "Point",
       "coordinates":  [ -71.0707,42.3272 ]
    },
    "properties": {
    "FIELD1":1542,
    "Unnamed: 0":1542,
    "open_dt":"2017/3/8 11:51",
    "year":2017,
    "neighborhood":"Roxbury",
    "location":"140 Kemble St  Roxbury  MA  02119",
    "location_street_name":"140 Kemble St",
    "location_zipcode":2119,
    "month":3
    }
  },
  {
    "type": "Feature",
    "geometry": {
       "type": "Point",
       "coordinates":  [ -71.0587,42.3594 ]
    },
    "properties": {
    "FIELD1":1543,
    "Unnamed: 0":1543,
    "open_dt":"2017/3/8 12:27",
    "year":2017,
    "neighborhood":"South Boston",
    "location":"INTERSECTION of Theodore A Glynn Way & Southampton St  Roxbury  MA  ",
    "location_street_name":"INTERSECTION Theodore A Glynn Way & Southampton St",
    "location_zipcode":null,
    "month":3
    }
  },
  {
    "type": "Feature",
    "geometry": {
       "type": "Point",
       "coordinates":  [ -71.0587,42.3594 ]
    },
    "properties": {
    "FIELD1":1544,
    "Unnamed: 0":1544,
    "open_dt":"2017/3/8 15:50",
    "year":2017,
    "neighborhood":"North End",
    "location":"INTERSECTION of Shawmut Ave & Massachusetts Tpke E  Boston  MA  ",
    "location_street_name":"INTERSECTION Shawmut Ave & Massachusetts Tpke E",
    "location_zipcode":null,
    "month":3
    }
  },
  {
    "type": "Feature",
    "geometry": {
       "type": "Point",
       "coordinates":  [ -71.0837,42.3301 ]
    },
    "properties": {
    "FIELD1":1545,
    "Unnamed: 0":1545,
    "open_dt":"2017/3/9 15:40",
    "year":2017,
    "neighborhood":"Roxbury",
    "location":"2300 Washington St  Roxbury  MA  02119",
    "location_street_name":"2300 Washington St",
    "location_zipcode":2119,
    "month":3
    }
  },
  {
    "type": "Feature",
    "geometry": {
       "type": "Point",
       "coordinates":  [ -71.0629,42.3293 ]
    },
    "properties": {
    "FIELD1":1546,
    "Unnamed: 0":1546,
    "open_dt":"2017/3/9 16:49",
    "year":2017,
    "neighborhood":"Dorchester",
    "location":"9 Allstate Rd  Dorchester  MA  02125",
    "location_street_name":"9 Allstate Rd",
    "location_zipcode":2125,
    "month":3
    }
  },
  {
    "type": "Feature",
    "geometry": {
       "type": "Point",
       "coordinates":  [ -71.0587,42.3594 ]
    },
    "properties": {
    "FIELD1":1547,
    "Unnamed: 0":1547,
    "open_dt":"2017/3/10 7:54",
    "year":2017,
    "neighborhood":"Roxbury",
    "location":"INTERSECTION of Allerton St & Chesterton St  Roxbury  MA  ",
    "location_street_name":"INTERSECTION Allerton St & Chesterton St",
    "location_zipcode":null,
    "month":3
    }
  },
  {
    "type": "Feature",
    "geometry": {
       "type": "Point",
       "coordinates":  [ -71.0725,42.3282 ]
    },
    "properties": {
    "FIELD1":1548,
    "Unnamed: 0":1548,
    "open_dt":"2017/3/10 7:58",
    "year":2017,
    "neighborhood":"Roxbury",
    "location":"67 Kemble St  Roxbury  MA  02119",
    "location_street_name":"67 Kemble St",
    "location_zipcode":2119,
    "month":3
    }
  },
  {
    "type": "Feature",
    "geometry": {
       "type": "Point",
       "coordinates":  [ -71.0682,42.3291 ]
    },
    "properties": {
    "FIELD1":1549,
    "Unnamed: 0":1549,
    "open_dt":"2017/3/10 8:16",
    "year":2017,
    "neighborhood":"South Boston",
    "location":"964 Massachusetts Ave  Roxbury  MA  02118",
    "location_street_name":"964 Massachusetts Ave",
    "location_zipcode":2118,
    "month":3
    }
  },
  {
    "type": "Feature",
    "geometry": {
       "type": "Point",
       "coordinates":  [ -71.0536,42.3296 ]
    },
    "properties": {
    "FIELD1":1550,
    "Unnamed: 0":1550,
    "open_dt":"2017/3/10 10:59",
    "year":2017,
    "neighborhood":"South Boston",
    "location":"32 Vinton St  South Boston  MA  02127",
    "location_street_name":"32 Vinton St",
    "location_zipcode":2127,
    "month":3
    }
  },
  {
    "type": "Feature",
    "geometry": {
       "type": "Point",
       "coordinates":  [ -71.0587,42.3594 ]
    },
    "properties": {
    "FIELD1":1551,
    "Unnamed: 0":1551,
    "open_dt":"2017/3/11 11:44",
    "year":2017,
    "neighborhood":"South End",
    "location":"INTERSECTION of Public Alley No. 719 & Harrison Ave  Roxbury  MA",
    "location_street_name":"INTERSECTION Public Alley No. 719 & Harrison Ave",
    "location_zipcode":null,
    "month":3
    }
  },
  {
    "type": "Feature",
    "geometry": {
       "type": "Point",
       "coordinates":  [ -71.0536,42.3317 ]
    },
    "properties": {
    "FIELD1":1552,
    "Unnamed: 0":1552,
    "open_dt":"2017/3/12 14:48",
    "year":2017,
    "neighborhood":"South Boston",
    "location":"235-241 Old Colony Ave  South Boston  MA  02127",
    "location_street_name":"235-241 Old Colony Ave",
    "location_zipcode":2127,
    "month":3
    }
  },
  {
    "type": "Feature",
    "geometry": {
       "type": "Point",
       "coordinates":  [ -71.0782,42.3464 ]
    },
    "properties": {
    "FIELD1":1553,
    "Unnamed: 0":1553,
    "open_dt":"2017/3/13 17:44",
    "year":2017,
    "neighborhood":"North End",
    "location":"16 Harcourt St  Boston  MA  02116",
    "location_street_name":"16 Harcourt St",
    "location_zipcode":2116,
    "month":3
    }
  },
  {
    "type": "Feature",
    "geometry": {
       "type": "Point",
       "coordinates":  [ -71.0709,42.333 ]
    },
    "properties": {
    "FIELD1":1554,
    "Unnamed: 0":1554,
    "open_dt":"2017/3/13 18:19",
    "year":2017,
    "neighborhood":"South Boston",
    "location":"19 Bradston St  Roxbury  MA  02118",
    "location_street_name":"19 Bradston St",
    "location_zipcode":2118,
    "month":3
    }
  },
  {
    "type": "Feature",
    "geometry": {
       "type": "Point",
       "coordinates":  [ -71.0561,42.2851 ]
    },
    "properties": {
    "FIELD1":1555,
    "Unnamed: 0":1555,
    "open_dt":"2017/3/13 20:35",
    "year":2017,
    "neighborhood":"Dorchester",
    "location":"15 Westmoreland St  Dorchester  MA  02124",
    "location_street_name":"15 Westmoreland St",
    "location_zipcode":2124,
    "month":3
    }
  },
  {
    "type": "Feature",
    "geometry": {
       "type": "Point",
       "coordinates":  [ -71.0733,42.3339 ]
    },
    "properties": {
    "FIELD1":1556,
    "Unnamed: 0":1556,
    "open_dt":"2017/3/16 20:56",
    "year":2017,
    "neighborhood":"South End",
    "location":"771 Albany St  Roxbury  MA  02118",
    "location_street_name":"771 Albany St",
    "location_zipcode":2118,
    "month":3
    }
  },
  {
    "type": "Feature",
    "geometry": {
       "type": "Point",
       "coordinates":  [ -71.0994,42.3153 ]
    },
    "properties": {
    "FIELD1":1557,
    "Unnamed: 0":1557,
    "open_dt":"2017/3/17 12:26",
    "year":2017,
    "neighborhood":"Jamaica Plain",
    "location":"6 Beethoven St  Roxbury  MA  02119",
    "location_street_name":"6 Beethoven St",
    "location_zipcode":2119,
    "month":3
    }
  },